[{"icao":"BGAA","name":"Aasiaat Airport","lat":68.721802,"lon":-52.784698,"elev":74},{"icao":"BGBW","name":"Narsarsuaq Airport","lat":61.1605,"lon":-45.425999,"elev":112},{"icao":"BGCH","name":"Qasigiannguit Heliport","lat":68.822816,"lon":-51.173447,"elev":70},{"icao":"BGCO","name":"Neerlerit Inaat Airport","lat":70.743103,"lon":-22.650499,"elev":45},{"icao":"BGGH","name":"Nuuk International Airport","lat":64.191066,"lon":-51.67914,"elev":283},{"icao":"BGJN","name":"Ilulissat Airport","lat":69.243202,"lon":-51.057098,"elev":95},{"icao":"BGKK","name":"Kulusuk Airport","lat":65.573601,"lon":-37.1236,"elev":117},{"icao":"BGMQ","name":"Maniitsoq Airport","lat":65.412498,"lon":-52.9394,"elev":91},{"icao":"BGPT","name":"Paamiut Airport","lat":62.014736,"lon":-49.670937,"elev":120},{"icao":"BGQQ","name":"Qaanaaq Airport","lat":77.488602,"lon":-69.388702,"elev":51},{"icao":"BGSF","name":"Kangerlussuaq International Airport","lat":67.010446,"lon":-50.715294,"elev":165},{"icao":"BGSG","name":"Sermiligaaq Heliport","lat":65.90592,"lon":-36.378254,"elev":33},{"icao":"BGSI","name":"Siorapaluk Heliport","lat":77.786517,"lon":-70.638657,"elev":102},{"icao":"BGSO","name":"Saarloq Heliport","lat":60.537778,"lon":-46.024722,"elev":null},{"icao":"BGSQ","name":"Saqqaq Heliport","lat":70.011448,"lon":-51.932142,"elev":38},{"icao":"BGSS","name":"Sisimiut Airport","lat":66.951302,"lon":-53.729301,"elev":33},{"icao":"BGST","name":"Saattut Heliport","lat":70.811172,"lon":-51.63129,"elev":131},{"icao":"BGSV","name":"Savissivik Heliport","lat":76.018613,"lon":-65.117683,"elev":24},{"icao":"BGTA","name":"Tasiusaq Heliport","lat":73.373055,"lon":-56.06028,"elev":181},{"icao":"BGTL","name":"Pituffik Space Base","lat":76.531197,"lon":-68.703201,"elev":251},{"icao":"BGTN","name":"Tiniteqilaaq Heliport","lat":65.892027,"lon":-37.783409,"elev":15},{"icao":"BGTQ","name":"Tasiusaq Heliport","lat":60.194305,"lon":-44.813447,"elev":21},{"icao":"BGUK","name":"Upernavik Airport","lat":72.790199,"lon":-56.1306,"elev":414},{"icao":"BGUM","name":"Uummannaq Heliport","lat":70.680428,"lon":-52.11163,"elev":50},{"icao":"BGUQ","name":"Qaarsut Airport","lat":70.7342,"lon":-52.696201,"elev":289},{"icao":"BGUT","name":"Ukkusissat Heliport","lat":71.049438,"lon":-51.890016,"elev":223},{"icao":"BIAR","name":"Akureyri International Airport","lat":65.656573,"lon":-18.072018,"elev":6},{"icao":"BIBA","name":"Bakki Airport","lat":63.556099,"lon":-20.137501,"elev":45},{"icao":"BIBD","name":"Bildudalur Airport","lat":65.641296,"lon":-23.5462,"elev":18},{"icao":"BIBF","name":"Borgarfjörður eystri Airport","lat":65.516769,"lon":-13.81578,"elev":80},{"icao":"BIBK","name":"Bakkafjörður Airport","lat":66.02189636230469,"lon":-14.824399948120117,"elev":14},{"icao":"BIBL","name":"Blönduós Airport","lat":65.644997,"lon":-20.2875,"elev":131},{"icao":"BIBR","name":"Búðardalur Airport","lat":65.074583,"lon":-21.802193,"elev":131},{"icao":"BIBV","name":"Breiðdalsvík Airport","lat":64.790037,"lon":-14.043927,"elev":8},{"icao":"BIDV","name":"Djúpivogur Airport","lat":64.642372,"lon":-14.277297,"elev":9},{"icao":"BIEG","name":"Egilsstaðir Airport","lat":65.2833023071289,"lon":-14.401399612426758,"elev":76},{"icao":"BIFF","name":"Fáskrúðsfjörður Airport","lat":64.931456,"lon":-14.047957,"elev":15},{"icao":"BIFL","name":"Flúðir Airport","lat":64.144595,"lon":-20.327069,"elev":270},{"icao":"BIFM","name":"Fagurhólsmýri Airport","lat":63.874699,"lon":-16.6411,"elev":56},{"icao":"BIGF","name":"Grundarfjörður Airport","lat":64.991402,"lon":-23.224701,"elev":17},{"icao":"BIGJ","name":"Gjögur Airport","lat":65.9953,"lon":-21.3269,"elev":83},{"icao":"BIGR","name":"Grímsey Airport","lat":66.5458,"lon":-18.0173,"elev":66},{"icao":"BIGS","name":"Grímsstaðir Airport","lat":65.633394,"lon":-16.154178,"elev":1279},{"icao":"BIHE","name":"Herðubreiðarlindir Airport","lat":65.190902,"lon":-16.204902,"elev":1500},{"icao":"BIHI","name":"Hveravellir Airport","lat":64.886101,"lon":-19.4925,"elev":2000},{"icao":"BIHK","name":"Hólmavík Airport","lat":65.704697,"lon":-21.6964,"elev":90},{"icao":"BIHL","name":"Hella Airport","lat":63.8358,"lon":-20.377501,"elev":66},{"icao":"BIHN","name":"Hornafjörður Airport","lat":64.295601,"lon":-15.2272,"elev":24},{"icao":"BIHU","name":"Húsavík Airport","lat":65.952301,"lon":-17.426001,"elev":48},{"icao":"BIHZ","name":"Húsafell Airport","lat":64.699773,"lon":-20.89216,"elev":380},{"icao":"BIIS","name":"Ísafjörður Airport","lat":66.058098,"lon":-23.1353,"elev":8},{"icao":"BIKA","name":"Kaldármelar Airport","lat":64.7789,"lon":-22.256901,"elev":160},{"icao":"BIKE","name":"Kerlingafjöll Airport","lat":64.705002,"lon":-19.410601,"elev":2100},{"icao":"BIKF","name":"Keflavik International Airport","lat":63.985001,"lon":-22.6056,"elev":171},{"icao":"BIKL","name":"Kirkjubæjarklaustur Airport","lat":63.792861,"lon":-18.003531,"elev":66},{"icao":"BIKP","name":"Kópasker Airport","lat":66.310799,"lon":-16.4667,"elev":20},{"icao":"BIKR","name":"Sauðárkrókur Airport","lat":65.73169708249999,"lon":-19.572799682599996,"elev":8},{"icao":"BIMK","name":"Múlakot Airport","lat":63.714103,"lon":-19.88121,"elev":260},{"icao":"BIMM","name":"Melgerðismelar Airport","lat":65.48266,"lon":-18.170106,"elev":89},{"icao":"BIMS","name":"Tungubakkar Airport","lat":64.181754,"lon":-21.706101,"elev":5},{"icao":"BIND","name":"Nýjidalur Airport","lat":64.719566,"lon":-18.067031,"elev":2625},{"icao":"BINF","name":"Norðfjörður Airport","lat":65.131897,"lon":-13.7464,"elev":13},{"icao":"BIOF","name":"Ólafsfjörður Airport","lat":66.083298,"lon":-18.6667,"elev":32},{"icao":"BIPA","name":"Patreksfjörður Airport","lat":65.555801,"lon":-23.965,"elev":11},{"icao":"BIRE","name":"Reykhólar Airport","lat":65.45262908935547,"lon":-22.20611572265625,"elev":60},{"icao":"BIRF","name":"Rif Airport","lat":64.9114,"lon":-23.823099,"elev":18},{"icao":"BIRG","name":"Raufarhöfn Airport","lat":66.406403,"lon":-15.9183,"elev":39},{"icao":"BIRK","name":"Reykjavík Domestic Airport","lat":64.128732,"lon":-21.93759,"elev":48},{"icao":"BIRL","name":"Reykjahlíð Airport","lat":65.6558,"lon":-16.9181,"elev":1030},{"icao":"BIRS","name":"Reykjanes Airport","lat":65.9142,"lon":-22.4214,"elev":10},{"icao":"BISA","name":"Sauðárflugvöllur","lat":64.842222,"lon":-16.036389,"elev":2200},{"icao":"BISF","name":"Selfoss Airport","lat":63.929199,"lon":-21.0378,"elev":45},{"icao":"BISI","name":"Siglufjörður Airport","lat":66.137847,"lon":-18.908157,"elev":10},{"icao":"BISK","name":"Skógasandur Airport","lat":63.517682,"lon":-19.4925,"elev":130},{"icao":"BISL","name":"Skaftafell Airport","lat":63.99948,"lon":-16.94116,"elev":249},{"icao":"BISR","name":"Stórikroppur Airport","lat":64.632625,"lon":-21.490859,"elev":165},{"icao":"BISS","name":"Sandskeið Airport","lat":64.060799,"lon":-21.574699,"elev":600},{"icao":"BIST","name":"Stykkishólmur Airport","lat":65.058851,"lon":-22.764616,"elev":42},{"icao":"BISV","name":"Skálavatn Airport","lat":64.115301,"lon":-18.785153,"elev":2000},{"icao":"BITE","name":"Þingeyri Airport","lat":65.8703,"lon":-23.559999,"elev":65},{"icao":"BITM","name":"Þórsmörk Airport","lat":63.689999,"lon":-19.563101,"elev":600},{"icao":"BITN","name":"Þórshöfn Airport","lat":66.218498,"lon":-15.3356,"elev":65},{"icao":"BIVI","name":"Vík Airport","lat":63.4217,"lon":-18.8883,"elev":100},{"icao":"BIVM","name":"Vestmannaeyjar Airport","lat":63.42430114746094,"lon":-20.278900146484375,"elev":326},{"icao":"BIVO","name":"Vopnafjörður Airport","lat":65.720596,"lon":-14.8506,"elev":16},{"icao":"BKPR","name":"Priština Adem Jashari International Airport","lat":42.5728,"lon":21.035801,"elev":1789}]