[{"icao":"FAAB","name":"Alexander Bay Airport","lat":-28.575001,"lon":16.5333,"elev":98},{"icao":"FAAE","name":"Aberdeen Airport","lat":-32.466386,"lon":24.064016,"elev":2461},{"icao":"FAAF","name":"Andrew's Field","lat":-34.763345,"lon":20.036357,"elev":30},{"icao":"FAAG","name":"Aggeneys Airport","lat":-29.281799,"lon":18.8139,"elev":2648},{"icao":"FAAL","name":"Alldays Airport","lat":-22.679001,"lon":29.0555,"elev":2600},{"icao":"FAAM","name":"Amsterdam Airport","lat":-26.633803,"lon":30.605561,"elev":4310},{"icao":"FAAN","name":"Aliwal North Airport","lat":-30.681072,"lon":26.730141,"elev":4405},{"icao":"FAAP","name":"Aviators Paradise Field","lat":-25.692875,"lon":27.782657,"elev":3800},{"icao":"FAAR","name":"Arathusa Safari Lodge Airport","lat":-24.740527,"lon":31.517973,"elev":1289},{"icao":"FAAS","name":"Ashton Airport","lat":-33.837978,"lon":20.049838,"elev":525},{"icao":"FABB","name":"Brakpan Airport","lat":-26.2386,"lon":28.3018,"elev":5300},{"icao":"FABE","name":"Bisho Airport","lat":-32.897099,"lon":27.2791,"elev":1950},{"icao":"FABL","name":"Bram Fischer International Airport","lat":-29.092699,"lon":26.302401,"elev":4457},{"icao":"FABU","name":"Bultfontein Airport","lat":-28.273369,"lon":26.135835,"elev":4400},{"icao":"FABW","name":"Beaufort West Airport","lat":-32.299999,"lon":22.67,"elev":2941},{"icao":"FACD","name":"Cradock Airport","lat":-32.1567001343,"lon":25.6455993652,"elev":3110},{"icao":"FACN","name":"Carnarvon Airport","lat":-30.9886,"lon":22.131701,"elev":4160},{"icao":"FACO","name":"Alkantpan Test Range Airport","lat":-29.933201,"lon":22.265741,"elev":3530},{"icao":"FACT","name":"Cape Town International Airport","lat":-33.9648017883,"lon":18.6016998291,"elev":151},{"icao":"FACW","name":"Clanwilliam Airport","lat":-32.177,"lon":18.8819,"elev":416},{"icao":"FADK","name":"Mubatuba Airport","lat":-28.36840057373047,"lon":32.24810028076172,"elev":210},{"icao":"FADQ","name":"Zulu Inyala Airport","lat":-27.84939956665039,"lon":32.30970001220703,"elev":160},{"icao":"FAEL","name":"King Phalo Airport","lat":-33.035599,"lon":27.825899,"elev":435},{"icao":"FAEM","name":"Empangeni Airport","lat":-28.719999313354492,"lon":31.889999389648438,"elev":251},{"icao":"FAEO","name":"Ermelo Airport","lat":-26.4956,"lon":29.979799,"elev":5700},{"icao":"FAER","name":"Ellisras Matimba Airport","lat":-23.726699829101562,"lon":27.68829917907715,"elev":2799},{"icao":"FAFB","name":"Ficksburg Sentraoes Airport","lat":-28.82309913635254,"lon":27.908899307250977,"elev":5315},{"icao":"FAGC","name":"Grand Central Airport","lat":-25.986299514799995,"lon":28.1401004791,"elev":5325},{"icao":"FAGG","name":"George Airport","lat":-34.0056,"lon":22.378902,"elev":648},{"icao":"FAGI","name":"Giyani Airport","lat":-23.2833,"lon":30.65,"elev":1584},{"icao":"FAGM","name":"Rand Airport","lat":-26.2425,"lon":28.151199,"elev":5483},{"icao":"FAGR","name":"Graaff Reinet Airport","lat":-32.1936,"lon":24.541401,"elev":2604},{"icao":"FAGT","name":"Grahamstown Airport","lat":-33.284698,"lon":26.4981,"elev":2135},{"icao":"FAGY","name":"Greytown Airport","lat":-29.122,"lon":30.5867,"elev":3531},{"icao":"FAHA","name":"Harmony Airport","lat":-28.078699,"lon":26.8612,"elev":4399},{"icao":"FAHG","name":"Heidelburg Airport","lat":-26.51,"lon":28.389999,"elev":5089},{"icao":"FAHL","name":"Hluhluwe Airport","lat":-28.0166049887,"lon":32.2751712799,"elev":249},{"icao":"FAHR","name":"Harrismith Airport","lat":-28.2351,"lon":29.106199,"elev":5585},{"icao":"FAHS","name":"Hoedspruit Air Force Base Airport","lat":-24.368600845299998,"lon":31.0487003326,"elev":1743},{"icao":"FAHV","name":"Gariep Dam Airport","lat":-30.562111,"lon":25.529343,"elev":4176},{"icao":"FAKD","name":"P C Pelser Airport","lat":-26.871099,"lon":26.718,"elev":4444},{"icao":"FAKM","name":"Kimberley Airport","lat":-28.802799224900003,"lon":24.7651996613,"elev":3950},{"icao":"FAKN","name":"Kruger Mpumalanga International Airport","lat":-25.3831996918,"lon":31.1056003571,"elev":2829},{"icao":"FAKP","name":"Komatipoort Airport","lat":-25.44029998779297,"lon":31.93000030517578,"elev":541},{"icao":"FAKR","name":"Krugersdorp Airport","lat":-26.080826,"lon":27.725915,"elev":5499},{"icao":"FAKS","name":"Kroonstad Airport","lat":-27.660601,"lon":27.3158,"elev":4700},{"icao":"FAKU","name":"Johan Pienaar Airport","lat":-27.45669937133789,"lon":23.411399841308594,"elev":4382},{"icao":"FAKZ","name":"Kleinsee Airport","lat":-29.6884002686,"lon":17.093999862700002,"elev":270},{"icao":"FALA","name":"Lanseria International Airport","lat":-25.938918,"lon":27.926444,"elev":4517},{"icao":"FALC","name":"Lime Acres Finsch Mine Airport","lat":-28.36009979248047,"lon":23.43910026550293,"elev":4900},{"icao":"FALD","name":"Londolozi Airport","lat":-24.7478,"lon":31.4743,"elev":1300},{"icao":"FALE","name":"King Shaka International Airport","lat":-29.6144444444,"lon":31.1197222222,"elev":295},{"icao":"FALI","name":"Lichtenburg Airport","lat":-26.175699,"lon":26.184601,"elev":4875},{"icao":"FALM","name":"Makhado Air Force Base Airport","lat":-23.159901,"lon":29.696501,"elev":3069},{"icao":"FALO","name":"Louis Trichardt Airport","lat":-23.061899185180664,"lon":29.864700317382812,"elev":3025},{"icao":"FALW","name":"Langebaanweg Airport","lat":-32.968898773199996,"lon":18.1602993011,"elev":108},{"icao":"FALY","name":"Ladysmith Airport","lat":-28.5816993713,"lon":29.749700546299998,"elev":3548},{"icao":"FAMB","name":"Middelburg Airport","lat":-25.684799,"lon":29.440201,"elev":4886},{"icao":"FAMD","name":"Malamala Airport","lat":-24.816866,"lon":31.544085,"elev":1124},{"icao":"FAMG","name":"Margate Airport","lat":-30.8574008942,"lon":30.343000412,"elev":495},{"icao":"FAMI","name":"Marble Hall Airport","lat":-24.9891,"lon":29.2831,"elev":2980},{"icao":"FAMJ","name":"Majuba Power Station Airport","lat":-27.0793,"lon":29.7785,"elev":5600},{"icao":"FAMM","name":"Mmabatho International Airport","lat":-25.798400878900004,"lon":25.548000335699996,"elev":4181},{"icao":"FAMN","name":"Malelane Airport","lat":-25.473581,"lon":31.565947,"elev":1153},{"icao":"FAMO","name":"Mossel Bay Airport","lat":-34.158746,"lon":22.055676,"elev":531},{"icao":"FAMS","name":"Morningside Farm Airport","lat":-25.7045001984,"lon":26.9090003967,"elev":4251},{"icao":"FAMU","name":"Mkuze Airport","lat":-27.626100540161133,"lon":32.0443000793457,"elev":400},{"icao":"FANC","name":"Newcastle Airport","lat":-27.7705993652,"lon":29.976900100699996,"elev":4074},{"icao":"FANG","name":"Ngala Airport","lat":-24.389,"lon":31.326,"elev":3357},{"icao":"FANS","name":"Nelspruit Airport","lat":-25.5,"lon":30.9137992859,"elev":2875},{"icao":"FANY","name":"Nylstroom Airfield","lat":-24.6861,"lon":28.4349,"elev":3900},{"icao":"FAOB","name":"Overberg Airport","lat":-34.563474,"lon":20.252438,"elev":52},{"icao":"FAOH","name":"Oudtshoorn Airport","lat":-33.6069984436,"lon":22.188999176,"elev":1063},{"icao":"FAOR","name":"O.R. Tambo International Airport","lat":-26.1392,"lon":28.246,"elev":5558},{"icao":"FAPA","name":"Port Alfred Airport","lat":-33.555057,"lon":26.881656,"elev":275},{"icao":"FAPE","name":"Chief Dawid Stuurman International Airport","lat":-33.984901,"lon":25.6173,"elev":226},{"icao":"FAPF","name":"Piet Retief Airport","lat":-26.996901,"lon":30.840799,"elev":4423},{"icao":"FAPG","name":"Plettenberg Bay Airport","lat":-34.08816,"lon":23.328723,"elev":465},{"icao":"FAPH","name":"Hendrik Van Eck Airport","lat":-23.937200546299998,"lon":31.1553993225,"elev":1432},{"icao":"FAPI","name":"Pietersburg Municipal Airport","lat":-23.9261,"lon":29.4844,"elev":4354},{"icao":"FAPJ","name":"Port St Johns Airport","lat":-31.60612,"lon":29.52175,"elev":1227},{"icao":"FAPK","name":"Prieska Airport","lat":-29.6835994720459,"lon":22.770599365234375,"elev":3100},{"icao":"FAPL","name":"Pongola Airport","lat":-27.3622,"lon":31.606701,"elev":942},{"icao":"FAPM","name":"Pietermaritzburg Airport","lat":-29.649000167799997,"lon":30.3987007141,"elev":2423},{"icao":"FAPN","name":"Pilanesberg International Airport","lat":-25.333799,"lon":27.173401,"elev":3412},{"icao":"FAPP","name":"Polokwane International Airport","lat":-23.845269,"lon":29.458615,"elev":4076},{"icao":"FAPS","name":"Potchefstroom Airport","lat":-26.670999527,"lon":27.0818996429,"elev":4520},{"icao":"FAPY","name":"Parys Airport","lat":-26.889299,"lon":27.503401,"elev":4740},{"icao":"FAQT","name":"Queenstown Airport","lat":-31.92020034790039,"lon":26.882200241088867,"elev":3637},{"icao":"FARB","name":"Richards Bay Airport","lat":-28.740999221800003,"lon":32.0920982361,"elev":109},{"icao":"FARG","name":"Rustenburg Airport","lat":-25.6443,"lon":27.271099,"elev":3700},{"icao":"FARI","name":"Reivilo Airport","lat":-27.547199249267578,"lon":24.172500610351562,"elev":4715},{"icao":"FARS","name":"Robertson Airport","lat":-33.812199,"lon":19.9028,"elev":640},{"icao":"FASB","name":"Springbok Airport","lat":-29.689300537109375,"lon":17.939599990844727,"elev":2690},{"icao":"FASC","name":"Secunda Airport","lat":-26.52409935,"lon":29.170099258399997,"elev":5250},{"icao":"FASD","name":"Saldanha/Vredenburg Airport","lat":-32.9641,"lon":17.969299,"elev":50},{"icao":"FASH","name":"Stellenbosch Airport","lat":-33.980983,"lon":18.822327,"elev":295},{"icao":"FASI","name":"Springs Airfield","lat":-26.2494,"lon":28.398272,"elev":5340},{"icao":"FASK","name":"Swartkop Air Force Base","lat":-25.8097,"lon":28.1646,"elev":4780},{"icao":"FASS","name":"Sishen Airport","lat":-27.6486,"lon":22.9993,"elev":3848},{"icao":"FASX","name":"Hendrik Swellengrebel Airport","lat":-34.048199,"lon":20.4746,"elev":407},{"icao":"FASY","name":"Baragwanath Airfield","lat":-26.348697,"lon":27.779546,"elev":5420},{"icao":"FASZ","name":"Skukuza Airport","lat":-24.960899353,"lon":31.5886993408,"elev":1020},{"icao":"FATF","name":"Tommys Field Airport","lat":-28.26,"lon":22.9932,"elev":4360},{"icao":"FATH","name":"Thohoyandou Airport","lat":-23.0769,"lon":30.3836,"elev":2021},{"icao":"FATN","name":"Thaba Nchu Tar Airport","lat":-29.317800521850586,"lon":26.822799682617188,"elev":4941},{"icao":"FATT","name":"Tutuka Power Station Airport","lat":-26.775128,"lon":29.337542,"elev":5313},{"icao":"FATZ","name":"Tzaneen Airport","lat":-23.8244,"lon":30.3293,"elev":1914},{"icao":"FAUL","name":"Prince Mangosuthu Buthelezi Airport","lat":-28.3206005096,"lon":31.4165000916,"elev":1720},{"icao":"FAUP","name":"Pierre Van Ryneveld Airport","lat":-28.39909935,"lon":21.260200500499998,"elev":2782},{"icao":"FAUS","name":"Ulusaba Airport","lat":-24.7854003906,"lon":31.3549003601,"elev":1263},{"icao":"FAUT","name":"K. D. Matanzima Airport","lat":-31.546363184900002,"lon":28.6733551025,"elev":2400},{"icao":"FAVB","name":"Vryburg Airport","lat":-26.9824008942,"lon":24.7287998199,"elev":3920},{"icao":"FAVG","name":"Virginia Airport","lat":-29.770599,"lon":31.058399,"elev":20},{"icao":"FAVM","name":"Venetia Mine Airport","lat":-22.448099,"lon":29.3377,"elev":2333},{"icao":"FAVR","name":"Vredendal Airport","lat":-31.641000747680664,"lon":18.5447998046875,"elev":330},{"icao":"FAVV","name":"Vereeniging Airport","lat":-26.566401,"lon":27.9608,"elev":4846},{"icao":"FAVW","name":"Victoria West Airport","lat":-31.399401,"lon":23.156401,"elev":4124},{"icao":"FAVY","name":"Vryheid Airport","lat":-27.78689956665039,"lon":30.79640007019043,"elev":3799},{"icao":"FAWB","name":"Wonderboom Airport","lat":-25.6539,"lon":28.224199,"elev":4095},{"icao":"FAWI","name":"Witbank Airport","lat":-25.8323,"lon":29.191999,"elev":5078},{"icao":"FAWK","name":"Waterkloof Air Force Base","lat":-25.829999923699997,"lon":28.222499847399998,"elev":4940},{"icao":"FAWM","name":"Welkom Airport","lat":-27.996825,"lon":26.663334,"elev":4421},{"icao":"FAWN","name":"Cape Winelands Airport","lat":-33.77,"lon":18.74,"elev":399},{"icao":"FAYP","name":"Ysterplaat Air Force Base","lat":-33.9002,"lon":18.498301,"elev":52},{"icao":"FAZR","name":"Zeerust Airport","lat":-25.599001,"lon":26.042299,"elev":4258},{"icao":"FBCO","name":"Camp Okavango Airport","lat":-19.131115,"lon":23.102505,"elev":3158},{"icao":"FBGM","name":"Gumare Airport","lat":-19.338,"lon":22.1544,"elev":3177},{"icao":"FBGZ","name":"Ghanzi Airport","lat":-21.692499,"lon":21.6581,"elev":3730},{"icao":"FBJW","name":"Jwaneng Airport","lat":-24.602301,"lon":24.691,"elev":3900},{"icao":"FBKE","name":"Kasane Airport","lat":-17.832899,"lon":25.162399,"elev":3289},{"icao":"FBKG","name":"Kang Airport","lat":-23.677969,"lon":22.817767,"elev":3520},{"icao":"FBKR","name":"Khwai River Lodge Airport","lat":-19.149477,"lon":23.787937,"elev":3000},{"icao":"FBKY","name":"Kanye Airport","lat":-25.049999,"lon":25.3167,"elev":4199},{"icao":"FBLO","name":"Lobatse Airport","lat":-25.1981,"lon":25.7139,"elev":3823},{"icao":"FBMA","name":"Matsieng Aerodrome","lat":-24.357132,"lon":26.090237,"elev":null},{"icao":"FBMG","name":"Machaneng Airport","lat":-23.18455,"lon":27.501029,"elev":2900},{"icao":"FBMM","name":"Makalamabedi Airport","lat":-20.310743,"lon":23.907773,"elev":3100},{"icao":"FBMN","name":"Maun Airport","lat":-19.970491,"lon":23.431409,"elev":3093},{"icao":"FBNN","name":"Nokaneng Airport","lat":-19.6802,"lon":22.1996,"elev":3145},{"icao":"FBNT","name":"Nata Airport","lat":-20.216101,"lon":26.158899,"elev":2690},{"icao":"FBOR","name":"Orapa Airport","lat":-21.265901,"lon":25.319667,"elev":3100},{"icao":"FBPA","name":"Pandamatenga Airport","lat":-18.5312,"lon":25.6516,"elev":3505},{"icao":"FBPM","name":"P G Matante Intl","lat":-21.15914,"lon":27.468545,"elev":3283},{"icao":"FBPT","name":"Thebephatshwa Airport","lat":-24.2211,"lon":25.3473,"elev":3750},{"icao":"FBPY","name":"Palapye Airport","lat":-22.564087,"lon":27.136745,"elev":3000},{"icao":"FBSK","name":"Sir Seretse Khama International Airport","lat":-24.555201,"lon":25.9182,"elev":3299},{"icao":"FBSN","name":"Sua Pan Airport","lat":-20.5534,"lon":26.115801,"elev":2985},{"icao":"FBSP","name":"Selebi Phikwe Airport","lat":-22.0583,"lon":27.8288,"elev":2925},{"icao":"FBSV","name":"Savuti Airport","lat":-18.518475,"lon":24.077687,"elev":3150},{"icao":"FBSW","name":"Shakawe Airport","lat":-18.373899459838867,"lon":21.832599639892578,"elev":3379},{"icao":"FBTL","name":"Tuli Lodge Airport","lat":-22.191897,"lon":29.131229,"elev":1772},{"icao":"FBTS","name":"Tshabong Airport","lat":-26.034524,"lon":22.401252,"elev":3179},{"icao":"FBXB","name":"Xaxaba Airport","lat":-19.550501,"lon":23.0548,"elev":3100},{"icao":"FBXG","name":"Xugana Airport","lat":-19.049999,"lon":23.09,"elev":null},{"icao":"FBXX","name":"Xudum Airport","lat":-19.679458,"lon":22.86833,"elev":3133},{"icao":"FCBB","name":"Maya-Maya International Airport","lat":-4.2517,"lon":15.253,"elev":1048},{"icao":"FCBD","name":"Djambala Airport","lat":-2.516883,"lon":14.754403,"elev":2595},{"icao":"FCBK","name":"Kindamba Airport","lat":-3.749781,"lon":14.490264,"elev":1460},{"icao":"FCBL","name":"Lague Airport","lat":-2.45,"lon":14.533,"elev":2756},{"icao":"FCBM","name":"Mouyondzi Airport","lat":-4.014874,"lon":13.966112,"elev":1670},{"icao":"FCBS","name":"Sibiti Airport","lat":-3.68661,"lon":13.37402,"elev":1883},{"icao":"FCBY","name":"Yokangassi Airport","lat":-4.223077,"lon":13.286347,"elev":541},{"icao":"FCBZ","name":"Zanaga Airport","lat":-2.846651,"lon":13.821155,"elev":1870},{"icao":"FCMM","name":"Mossendjo Airport","lat":-2.95,"lon":12.7,"elev":1519},{"icao":"FCOB","name":"Boundji Airport","lat":-1.03104,"lon":15.336009,"elev":1247},{"icao":"FCOD","name":"Oyo Ollombo Airport","lat":-1.226666,"lon":15.91,"elev":1073},{"icao":"FCOE","name":"Ewo Airport","lat":-0.883,"lon":14.8,"elev":1503},{"icao":"FCOG","name":"Gamboma Airport","lat":-1.829403,"lon":15.885237,"elev":1509},{"icao":"FCOI","name":"Impfondo Airport","lat":1.589968,"lon":18.046624,"elev":1050},{"icao":"FCOK","name":"Kelle Airport","lat":-0.071271,"lon":14.506621,"elev":1526},{"icao":"FCOM","name":"Makoua Airport","lat":-0.020842,"lon":15.577746,"elev":1293},{"icao":"FCOO","name":"Owando Airport","lat":-0.524566,"lon":15.93782,"elev":1214},{"icao":"FCOS","name":"Souanke Airport","lat":1.998326,"lon":14.174217,"elev":1722},{"icao":"FCOT","name":"Betou Airport","lat":3.057593,"lon":18.514433,"elev":1168},{"icao":"FCOU","name":"Ouesso Airport","lat":1.61599,"lon":16.037901,"elev":1158},{"icao":"FCPA","name":"Makabana Airport","lat":-3.483,"lon":12.617,"elev":495},{"icao":"FCPD","name":"Ngot Nzoungou Airport","lat":-4.20635,"lon":12.6599,"elev":1079},{"icao":"FCPP","name":"Antonio Agostinho-Neto International Airport","lat":-4.81603,"lon":11.8866,"elev":55},{"icao":"FDBT","name":"Tambuti Airport","lat":-26.735201,"lon":31.7759,"elev":595},{"icao":"FDKB","name":"Kubuta Airport","lat":-26.881528,"lon":31.488889,"elev":1555},{"icao":"FDMH","name":"Mhlume Airport","lat":-26.0242,"lon":31.809999,"elev":926},{"icao":"FDMS","name":"Matsapha Airport","lat":-26.528999,"lon":31.307501,"elev":2075},{"icao":"FDNG","name":"Piggs Peak Airport","lat":-25.798056,"lon":31.4125,"elev":1410},{"icao":"FDNH","name":"Nhlangano Airport","lat":-27.119494,"lon":31.212118,"elev":3522},{"icao":"FDNS","name":"Nsoko Airport","lat":-26.987222,"lon":31.937222,"elev":614},{"icao":"FDSK","name":"King Mswati III International Airport","lat":-26.358611,"lon":31.716944,"elev":1092},{"icao":"FDSM","name":"Simunye Airport","lat":-26.200001,"lon":31.933332,"elev":673},{"icao":"FDST","name":"Siteki Airport","lat":-26.471957,"lon":31.942567,"elev":2220},{"icao":"FDTM","name":"Tambankulu Airport","lat":-26.106429,"lon":31.919489,"elev":811},{"icao":"FDTS","name":"Tshaneni Airport","lat":-25.983334,"lon":31.200001,"elev":1020},{"icao":"FDUB","name":"Ubombo Ranches Airport","lat":-26.7708,"lon":31.936399,"elev":null},{"icao":"FEFA","name":"Alindao Airport","lat":5.022184,"lon":21.198635,"elev":1470},{"icao":"FEFB","name":"Poste Airport","lat":5.403889,"lon":26.487222,"elev":2137},{"icao":"FEFC","name":"Carnot Airport","lat":4.936999797821045,"lon":15.894000053405762,"elev":1985},{"icao":"FEFE","name":"Mobaye Mbanga Airport","lat":4.37465,"lon":21.131901,"elev":1332},{"icao":"FEFF","name":"Bangui M'Poko International Airport","lat":4.39848,"lon":18.518801,"elev":1208},{"icao":"FEFG","name":"Bangassou Airport","lat":4.784999847412109,"lon":22.7810001373291,"elev":1706},{"icao":"FEFI","name":"Birao Airport","lat":10.23639965057373,"lon":22.716899871826172,"elev":1696},{"icao":"FEFK","name":"Kembé Airport","lat":4.6,"lon":21.867001,"elev":1913},{"icao":"FEFM","name":"Bambari Airport","lat":5.847012,"lon":20.64992,"elev":1549},{"icao":"FEFN","name":"N'Délé Airport","lat":8.427206039428711,"lon":20.635156631469727,"elev":1631},{"icao":"FEFO","name":"Bouar Airport","lat":5.958000183105469,"lon":15.63700008392334,"elev":3360},{"icao":"FEFP","name":"Paoua Airport","lat":7.25,"lon":16.433001,"elev":2037},{"icao":"FEFQ","name":"Kaga-Bandoro Airport","lat":6.983,"lon":19.183001,"elev":1476},{"icao":"FEFR","name":"Bria Airport","lat":6.527780055999756,"lon":21.98940086364746,"elev":1975},{"icao":"FEFS","name":"Bossangoa Airport","lat":6.492000102996826,"lon":17.429000854492188,"elev":1637},{"icao":"FEFT","name":"Berbérati Airport","lat":4.2215800285339355,"lon":15.786399841308594,"elev":1929},{"icao":"FEFU","name":"Sibut Airport","lat":5.733,"lon":19.083,"elev":1411},{"icao":"FEFW","name":"Ouadda Airport","lat":8.010560035705566,"lon":22.39859962463379,"elev":2461},{"icao":"FEFY","name":"Yalinga Airport","lat":6.519999980926514,"lon":23.260000228881836,"elev":1975},{"icao":"FEFZ","name":"Zemio Airport","lat":5.002226,"lon":25.101857,"elev":1995},{"icao":"FEGC","name":"Bocaranga Airport","lat":6.917,"lon":15.617,"elev":3464},{"icao":"FEGE","name":"M'Boki Airport","lat":5.33301019669,"lon":25.931900024399997,"elev":1969},{"icao":"FEGF","name":"Batangafo Airport","lat":7.314109802246094,"lon":18.308799743652344,"elev":1378},{"icao":"FEGG","name":"Gamboula Airport","lat":4.133,"lon":15.15,"elev":2001},{"icao":"FEGL","name":"Gordil Airport","lat":9.581117,"lon":21.728172,"elev":1427},{"icao":"FEGM","name":"Bakouma Airport","lat":5.693999767303467,"lon":22.801000595092773,"elev":1640},{"icao":"FEGO","name":"Ouanda Djallé Airport","lat":8.899999618530273,"lon":22.783000946044922,"elev":1985},{"icao":"FEGR","name":"Rafaï Airport","lat":4.988609790802002,"lon":23.927799224853516,"elev":1759},{"icao":"FEGU","name":"Bouca Airport","lat":6.517000198364258,"lon":18.267000198364258,"elev":1532},{"icao":"FEGZ","name":"Bozoum Airport","lat":6.344170093536377,"lon":16.3218994140625,"elev":2215},{"icao":"FGBT","name":"Bata International Airport","lat":1.90547,"lon":9.80568,"elev":13},{"icao":"FGMY","name":"President Obiang Nguema International Airport","lat":1.676437,"lon":11.024904,"elev":2165},{"icao":"FGSL","name":"Malabo International Airport","lat":3.75527,"lon":8.70872,"elev":76},{"icao":"FHAW","name":"RAF Ascension Island","lat":-7.9696,"lon":-14.3937,"elev":278},{"icao":"FHSH","name":"Saint Helena Airport","lat":-15.957725,"lon":-5.645943,"elev":1017},{"icao":"FIMP","name":"Sir Seewoosagur Ramgoolam International Airport","lat":-20.430201,"lon":57.683601,"elev":186},{"icao":"FIMR","name":"Sir Charles Gaetan Duval Airport","lat":-19.7577,"lon":63.361,"elev":95},{"icao":"FKAB","name":"Banyo Airport","lat":6.77499,"lon":11.807,"elev":3642},{"icao":"FKKB","name":"Kribi Airport","lat":2.8738899231,"lon":9.9777803421,"elev":148},{"icao":"FKKC","name":"Tiko Airport","lat":4.08919000626,"lon":9.360529899600001,"elev":151},{"icao":"FKKD","name":"Douala International Airport","lat":4.00608,"lon":9.71948,"elev":33},{"icao":"FKKE","name":"Eseka Airport","lat":3.642129,"lon":10.79093,"elev":738},{"icao":"FKKF","name":"Mamfe Airport","lat":5.70417,"lon":9.30639,"elev":413},{"icao":"FKKG","name":"Bali Airport","lat":5.89527777778,"lon":10.0338888889,"elev":4465},{"icao":"FKKH","name":"Kaélé Airport","lat":10.0925,"lon":14.4456,"elev":1276},{"icao":"FKKI","name":"Batouri Airport","lat":4.475,"lon":14.3625,"elev":2152},{"icao":"FKKJ","name":"Yagoua Airport","lat":10.3561,"lon":15.2372,"elev":1070},{"icao":"FKKL","name":"Salak Airport","lat":10.451399803161621,"lon":14.257399559020996,"elev":1390},{"icao":"FKKM","name":"Foumban Nkounja Airport","lat":5.63692,"lon":10.7508,"elev":3963},{"icao":"FKKN","name":"N'Gaoundéré Airport","lat":7.3570098876953125,"lon":13.559200286865234,"elev":3655},{"icao":"FKKO","name":"Bertoua Airport","lat":4.54861,"lon":13.7261,"elev":2133},{"icao":"FKKR","name":"Garoua International Airport","lat":9.33588981628418,"lon":13.370100021362305,"elev":794},{"icao":"FKKS","name":"Dschang Airport","lat":5.45,"lon":10.067,"elev":4593},{"icao":"FKKU","name":"Bafoussam Airport","lat":5.536920070650001,"lon":10.354599952700001,"elev":4347},{"icao":"FKKV","name":"Bamenda Airport","lat":6.03924,"lon":10.1226,"elev":4065},{"icao":"FKKW","name":"Ebolowa Airport","lat":2.875999927520752,"lon":11.1850004196167,"elev":1975},{"icao":"FKKY","name":"Yaoundé Ville Airport","lat":3.83604,"lon":11.5235,"elev":2464},{"icao":"FKYS","name":"Yaoundé Nsimalen International Airport","lat":3.72256,"lon":11.5533,"elev":2278},{"icao":"FLAA","name":"Kawa Airport","lat":-13.704573,"lon":29.510608,"elev":4364},{"icao":"FLAB","name":"Kakumbi Airstrip","lat":-13.067913,"lon":31.763252,"elev":1738},{"icao":"FLAI","name":"Amelia Airport","lat":-13.755705,"lon":29.338077,"elev":4206},{"icao":"FLAM","name":"Chama Airstrip","lat":-11.238236,"lon":33.160724,"elev":2560},{"icao":"FLBA","name":"Mbala Airport","lat":-8.85917,"lon":31.336399,"elev":5454},{"icao":"FLBW","name":"Nabwalya Airstrip","lat":-12.428904,"lon":31.977439,"elev":1885},{"icao":"FLCC","name":"Chocha Airport","lat":-8.43184,"lon":29.805057,"elev":3270},{"icao":"FLCF","name":"Chifunda Airstrip","lat":-11.884965,"lon":32.568551,"elev":2078},{"icao":"FLCG","name":"Chilongolo Airport","lat":-15.496356,"lon":28.172259,"elev":4055},{"icao":"FLCP","name":"Chipata Airport","lat":-13.5583,"lon":32.5872,"elev":3360},{"icao":"FLCU","name":"Chunga Airstrip","lat":-15.053957,"lon":25.985673,"elev":3632},{"icao":"FLEB","name":"East Two Airport","lat":-11.108281,"lon":30.359645,"elev":3900},{"icao":"FLEC","name":"East Three Airport","lat":-14.116653,"lon":30.129175,"elev":2300},{"icao":"FLEE","name":"East Five Airport","lat":-10.539075,"lon":33.406194,"elev":4200},{"icao":"FLEF","name":"East Six Airport","lat":-11.135792,"lon":30.015396,"elev":3800},{"icao":"FLEG","name":"East Seven Airport","lat":-12.41734,"lon":29.483342,"elev":4000},{"icao":"FLEH","name":"East Eight Airport","lat":-12.150273,"lon":29.437594,"elev":4000},{"icao":"FLHN","name":"Harry Mwanga Nkumbula International Airport","lat":-17.8218,"lon":25.822701,"elev":3302},{"icao":"FLKE","name":"Kasompe Airport","lat":-12.5728,"lon":27.8939,"elev":4636},{"icao":"FLKK","name":"Kenneth Kaunda International Airport","lat":-15.330833,"lon":28.452722,"elev":3779},{"icao":"FLKL","name":"Kalabo Airport","lat":-14.998818,"lon":22.648372,"elev":3450},{"icao":"FLKO","name":"Kaoma Airport","lat":-14.8,"lon":24.783001,"elev":3670},{"icao":"FLKS","name":"Kasama Airport","lat":-10.210169,"lon":31.123045,"elev":4541},{"icao":"FLKW","name":"Milliken Airport","lat":-14.4506,"lon":28.3792,"elev":3920},{"icao":"FLKY","name":"Kasaba Bay Airport","lat":-8.525,"lon":30.663,"elev":2780},{"icao":"FLKZ","name":"Lukuzi Airport","lat":-12.847881,"lon":32.035818,"elev":1801},{"icao":"FLLA","name":"Luanshya Zambia Airport","lat":-13.143052,"lon":28.426517,"elev":4101},{"icao":"FLLC","name":"Lusaka City Airport","lat":-15.4138,"lon":28.3307,"elev":4200},{"icao":"FLLK","name":"Lukulu Airport","lat":-14.375891,"lon":23.248648,"elev":3480},{"icao":"FLLV","name":"Lochinvar Airport","lat":-16.009561,"lon":27.249314,"elev":3280},{"icao":"FLMA","name":"Mansa Airport","lat":-11.137,"lon":28.872601,"elev":4101},{"icao":"FLMB","name":"Maamba Airport","lat":-17.367401,"lon":27.185162,"elev":2050},{"icao":"FLMF","name":"Mfuwe Airport","lat":-13.258899688720703,"lon":31.936599731445312,"elev":1853},{"icao":"FLMG","name":"Mongu Airport","lat":-15.2545,"lon":23.1623,"elev":3488},{"icao":"FLNA","name":"Ngoma Airport","lat":-15.9658,"lon":25.9333,"elev":3400},{"icao":"FLND","name":"Peter Zuze Air Force Base","lat":-12.997222,"lon":28.663889,"elev":4170},{"icao":"FLSK","name":"Simon Mwansa Kapwepwe International Airport","lat":-12.961667,"lon":28.516667,"elev":4308},{"icao":"FLSN","name":"Senanga Airport","lat":-16.113,"lon":23.2982,"elev":3347},{"icao":"FLSO","name":"Southdowns Airport","lat":-12.9005,"lon":28.1499,"elev":4145},{"icao":"FLSS","name":"Sesheke Airport","lat":-17.47632,"lon":24.306089,"elev":3100},{"icao":"FLSW","name":"Solwesi Airport","lat":-12.173700332641602,"lon":26.365100860595703,"elev":4551},{"icao":"FLZB","name":"Zambezi Airport","lat":-13.535996,"lon":23.10559,"elev":3538},{"icao":"FMCH","name":"Prince Said Ibrahim International Airport","lat":-11.5337,"lon":43.2719,"elev":93},{"icao":"FMCI","name":"Mohéli Bandar Es Eslam Airport","lat":-12.298096,"lon":43.766496,"elev":46},{"icao":"FMCV","name":"Ouani Airport","lat":-12.131047,"lon":44.430044,"elev":62},{"icao":"FMCZ","name":"Dzaoudzi Pamandzi International Airport","lat":-12.809319,"lon":45.281815,"elev":23},{"icao":"FMEE","name":"Roland Garros Airport","lat":-20.890087,"lon":55.518894,"elev":66},{"icao":"FMEP","name":"Pierrefonds Airport","lat":-21.319362,"lon":55.422506,"elev":59},{"icao":"FMFE","name":"Ambohibary Airport","lat":-18.9175,"lon":48.2181944444,"elev":2960},{"icao":"FMMA","name":"Antananarivo Arivonimamo Airport","lat":-19.028999,"lon":47.171799,"elev":4757},{"icao":"FMMB","name":"Ambatomainty Airport","lat":-17.686667,"lon":45.623889,"elev":1025},{"icao":"FMMC","name":"Malaimbandy Airport","lat":-20.355390292099997,"lon":45.5433726311,"elev":597},{"icao":"FMME","name":"Antsirabe Airport","lat":-19.839221,"lon":47.063713,"elev":4997},{"icao":"FMMG","name":"Antsalova Airport","lat":-18.701273,"lon":44.614921,"elev":551},{"icao":"FMMH","name":"Mahanoro Airport","lat":-19.83300018310547,"lon":48.79999923706055,"elev":16},{"icao":"FMMI","name":"Ivato Airport","lat":-18.7969,"lon":47.478802,"elev":4198},{"icao":"FMMJ","name":"Ambohijanahary Airport","lat":-17.464479,"lon":48.326712,"elev":2496},{"icao":"FMMK","name":"Ankavandra Airport","lat":-18.80501,"lon":45.273467,"elev":427},{"icao":"FMML","name":"Belo sur Tsiribihina Airport","lat":-19.686701,"lon":44.541901,"elev":154},{"icao":"FMMN","name":"Miandrivazo Airport","lat":-19.562799,"lon":45.450802,"elev":203},{"icao":"FMMO","name":"Maintirano Airport","lat":-18.049999,"lon":44.033001,"elev":95},{"icao":"FMMP","name":"Amparafaravola Airport","lat":-17.654573,"lon":48.214445,"elev":2576},{"icao":"FMMQ","name":"Atsinanana Airport","lat":-19.58300018310547,"lon":48.803001403808594,"elev":33},{"icao":"FMMR","name":"Morafenobe Airport","lat":-17.850083,"lon":44.920467,"elev":748},{"icao":"FMMS","name":"Sainte Marie Airport","lat":-17.093901,"lon":49.8158,"elev":7},{"icao":"FMMT","name":"Toamasina Ambalamanasy Airport","lat":-18.113537,"lon":49.392262,"elev":22},{"icao":"FMMU","name":"Tambohorano Airport","lat":-17.476101,"lon":43.972801,"elev":23},{"icao":"FMMV","name":"Morondava Airport","lat":-20.2847,"lon":44.3176,"elev":30},{"icao":"FMMX","name":"Tsiroanomandidy Airport","lat":-18.759677,"lon":46.054065,"elev":2776},{"icao":"FMMY","name":"Vatomandry Airport","lat":-19.383333,"lon":48.95,"elev":39},{"icao":"FMMZ","name":"Ambatondrazaka Airport","lat":-17.795378,"lon":48.442583,"elev":2513},{"icao":"FMNA","name":"Arrachart Airport","lat":-12.3494,"lon":49.291698,"elev":374},{"icao":"FMNC","name":"Mananara Nord Airport","lat":-16.1639,"lon":49.7738,"elev":9},{"icao":"FMND","name":"Andapa Airport","lat":-14.651700019836426,"lon":49.620601654052734,"elev":1552},{"icao":"FMNE","name":"Ambilobe Airport","lat":-13.1884,"lon":48.987999,"elev":72},{"icao":"FMNF","name":"Avaratra Airport","lat":-15.199999809265137,"lon":48.483001708984375,"elev":820},{"icao":"FMNG","name":"Port Bergé Airport","lat":-15.584286,"lon":47.623587,"elev":213},{"icao":"FMNH","name":"Antsirabe Airport","lat":-14.9994,"lon":50.320202,"elev":20},{"icao":"FMNK","name":"Antsiranana Andrakaka Airport","lat":-12.2561,"lon":49.2542,"elev":200},{"icao":"FMNL","name":"Analalava Airport","lat":-14.629514,"lon":47.763555,"elev":345},{"icao":"FMNM","name":"Amborovy Airport","lat":-15.666842,"lon":46.351233,"elev":87},{"icao":"FMNN","name":"Nosy Be-Fascene International Airport","lat":-13.3121,"lon":48.3148,"elev":36},{"icao":"FMNO","name":"Soalala Airport","lat":-16.10169,"lon":45.358837,"elev":141},{"icao":"FMNP","name":"Mampikony Airport","lat":-16.071916,"lon":47.642953,"elev":118},{"icao":"FMNQ","name":"Besalampy Airport","lat":-16.74453,"lon":44.482484,"elev":125},{"icao":"FMNR","name":"Maroantsetra Airport","lat":-15.437742,"lon":49.689081,"elev":9},{"icao":"FMNS","name":"Sambava Airport","lat":-14.2786,"lon":50.174702,"elev":20},{"icao":"FMNT","name":"Tsaratanana Airport","lat":-16.751064,"lon":47.619016,"elev":1073},{"icao":"FMNV","name":"Vohemar Airport","lat":-13.3758,"lon":50.0028,"elev":19},{"icao":"FMNW","name":"Ambalabe Airport","lat":-14.8988,"lon":47.9939,"elev":92},{"icao":"FMNX","name":"Mandritsara Airport","lat":-15.845992,"lon":48.834718,"elev":1007},{"icao":"FMSA","name":"Ambalavao Airport","lat":-21.814891,"lon":46.914024,"elev":3189},{"icao":"FMSB","name":"Antsoa Airport","lat":-21.606983764699997,"lon":45.136020183599996,"elev":820},{"icao":"FMSC","name":"Mandabe Airport","lat":-21.0463049303,"lon":44.9404120445,"elev":951},{"icao":"FMSD","name":"Tôlanaro Airport","lat":-25.038099,"lon":46.9561,"elev":29},{"icao":"FMSE","name":"Betroka Airport","lat":-23.274308,"lon":46.124983,"elev":2841},{"icao":"FMSF","name":"Fianarantsoa Airport","lat":-21.441601,"lon":47.111698,"elev":3658},{"icao":"FMSG","name":"Farafangana Airport","lat":-22.8053,"lon":47.820599,"elev":26},{"icao":"FMSI","name":"Ihosy Airport","lat":-22.404720202399997,"lon":46.1649370193,"elev":2500},{"icao":"FMSJ","name":"Manja Airport","lat":-21.426105,"lon":44.316509,"elev":787},{"icao":"FMSK","name":"Manakara Airport","lat":-22.119699,"lon":48.021702,"elev":33},{"icao":"FMSL","name":"Bekily Airport","lat":-24.235694754699995,"lon":45.3045272827,"elev":1270},{"icao":"FMSM","name":"Mananjary Airport","lat":-21.201799,"lon":48.358299,"elev":20},{"icao":"FMSN","name":"Samangoky Airport","lat":-21.700000762939453,"lon":43.733001708984375,"elev":89},{"icao":"FMSR","name":"Morombe Airport","lat":-21.753837,"lon":43.374753,"elev":16},{"icao":"FMST","name":"Toliara Airport","lat":-23.3834,"lon":43.7285,"elev":29},{"icao":"FMSU","name":"Vangaindrano Airport","lat":-23.350766591499998,"lon":47.581701278699995,"elev":45},{"icao":"FMSV","name":"Betioky Airport","lat":-23.732999801635742,"lon":44.388999938964844,"elev":919},{"icao":"FMSY","name":"Ampanihy Airport","lat":-24.699699,"lon":44.7342,"elev":771},{"icao":"FMSZ","name":"Ankazoabo Airport","lat":-22.2964423522,"lon":44.5315361023,"elev":1411},{"icao":"FNAM","name":"Ambriz Airport","lat":-7.86222,"lon":13.1161,"elev":144},{"icao":"FNBC","name":"Mbanza Congo Airport","lat":-6.269899845123291,"lon":14.246999740600586,"elev":1860},{"icao":"FNBG","name":"Benguela Airport","lat":-12.609,"lon":13.4037,"elev":118},{"icao":"FNBJ","name":"Dr. Antonio Agostinho Neto International Airport","lat":-9.050734,"lon":13.499078,"elev":550},{"icao":"FNBL","name":"Lumbala Airport","lat":-14.105106,"lon":21.45083,"elev":3700},{"icao":"FNCA","name":"Cabinda Airport","lat":-5.59699010848999,"lon":12.188400268554688,"elev":66},{"icao":"FNCB","name":"Camembe Airport","lat":-8.119819,"lon":14.498963,"elev":2264},{"icao":"FNCC","name":"Cacolo Airport","lat":-10.110278,"lon":19.287304,"elev":4400},{"icao":"FNCF","name":"Cafunfo Airport","lat":-8.78361,"lon":17.9897,"elev":null},{"icao":"FNCH","name":"Chitato Airport","lat":-7.35889,"lon":20.804701,"elev":2500},{"icao":"FNCM","name":"Camabatela Airport","lat":-8.177847,"lon":15.383177,"elev":410},{"icao":"FNCP","name":"Kapanda Airport","lat":-9.76937,"lon":15.455319,"elev":3366},{"icao":"FNCT","name":"Catumbela Airport","lat":-12.4792,"lon":13.4869,"elev":23},{"icao":"FNCU","name":"Calulo Airport","lat":-9.976268,"lon":14.917932,"elev":2988},{"icao":"FNCV","name":"Cuito Cuanavale Airport","lat":-15.1603,"lon":19.156099,"elev":null},{"icao":"FNCX","name":"Camaxilo Airport","lat":-8.37361,"lon":18.923599,"elev":3957},{"icao":"FNCZ","name":"Cazombo Airport","lat":-11.8931,"lon":22.916239,"elev":3700},{"icao":"FNDB","name":"Damba Airport","lat":-6.9,"lon":15.133,"elev":3648},{"icao":"FNDU","name":"Dundo Airport","lat":-7.400889873504639,"lon":20.818500518798828,"elev":2451},{"icao":"FNGI","name":"Ngjiva Pereira Airport","lat":-17.0435009003,"lon":15.683799743700002,"elev":3566},{"icao":"FNHU","name":"Albano Machado Airport","lat":-12.8089,"lon":15.7605,"elev":5587},{"icao":"FNJM","name":"Jamba Airport","lat":-14.698193,"lon":16.070148,"elev":4912},{"icao":"FNKU","name":"Kuito Airport","lat":-12.404600143433,"lon":16.947399139404,"elev":5618},{"icao":"FNLB","name":"Lobito Airport","lat":-12.3712,"lon":13.5366,"elev":10},{"icao":"FNLK","name":"Lucapa Airport","lat":-8.442339,"lon":20.732701,"elev":3029},{"icao":"FNLM","name":"Lumbala Airstrip","lat":-12.638947,"lon":22.589028,"elev":3510},{"icao":"FNLU","name":"Quatro de Fevereiro International Airport","lat":-8.85837,"lon":13.2312,"elev":243},{"icao":"FNLZ","name":"Luzamba Airport","lat":-9.11596012115,"lon":18.049299240099998,"elev":2904},{"icao":"FNMA","name":"Malanje Airport","lat":-9.525090217590332,"lon":16.312400817871094,"elev":3868},{"icao":"FNME","name":"Menongue Airport","lat":-14.657600402832031,"lon":17.71980094909668,"elev":4469},{"icao":"FNMO","name":"Welwitschia Mirabilis International Airport","lat":-15.2612,"lon":12.1468,"elev":210},{"icao":"FNMQ","name":"Maquela Airport","lat":-6.03028,"lon":15.1369,"elev":3051},{"icao":"FNNG","name":"Negage Airport","lat":-7.754509925842285,"lon":15.287699699401855,"elev":4105},{"icao":"FNNL","name":"Huambo Airport","lat":-12.786306,"lon":15.774528,"elev":5443},{"icao":"FNPA","name":"Porto Amboim Airport","lat":-10.722,"lon":13.7655,"elev":16},{"icao":"FNPB","name":"Sanza Pombo Airport","lat":-7.288999,"lon":15.930191,"elev":3251},{"icao":"FNSA","name":"Saurimo Airport","lat":-9.68907,"lon":20.4319,"elev":3584},{"icao":"FNSO","name":"Soyo Airport","lat":-6.141089916229248,"lon":12.371800422668457,"elev":15},{"icao":"FNSU","name":"Sumbe Airport","lat":-11.1679,"lon":13.8475,"elev":36},{"icao":"FNTE","name":"Tchamutete Airport","lat":-15.216387,"lon":16.054915,"elev":4241},{"icao":"FNTO","name":"Xamindele Airport","lat":-7.14639,"lon":14.2486,"elev":1775},{"icao":"FNUA","name":"Luau Airport","lat":-10.7158,"lon":22.2311,"elev":3609},{"icao":"FNUB","name":"Lubango Airport","lat":-14.924699783325195,"lon":13.574999809265137,"elev":5778},{"icao":"FNUE","name":"Luena Airport","lat":-11.7681,"lon":19.897699,"elev":4360},{"icao":"FNUG","name":"Uige Airport","lat":-7.60307,"lon":15.0278,"elev":2720},{"icao":"FNWK","name":"Waco Kungo Airport","lat":-11.4264,"lon":15.1014,"elev":4324},{"icao":"FNXA","name":"Xangongo Airport","lat":-16.755399703979492,"lon":14.965299606323242,"elev":3635},{"icao":"FNZE","name":"N'zeto Airport","lat":-7.259277,"lon":12.862355,"elev":69},{"icao":"FNZG","name":"Nzagi Airport","lat":-7.716939926149999,"lon":21.358200073200003,"elev":2431},{"icao":"FOGA","name":"Akieni Airport","lat":-1.13967001438,"lon":13.9035997391,"elev":1660},{"icao":"FOGB","name":"Booue Airport","lat":-0.1075,"lon":11.9438,"elev":604},{"icao":"FOGE","name":"Ndende Airport","lat":-2.4,"lon":11.367,"elev":417},{"icao":"FOGF","name":"Fougamou Airport","lat":-1.278325,"lon":10.612497,"elev":263},{"icao":"FOGG","name":"M'Bigou Airport","lat":-1.893056,"lon":11.9125,"elev":2346},{"icao":"FOGI","name":"Moabi Airport","lat":-2.455187,"lon":10.9358,"elev":787},{"icao":"FOGJ","name":"Ville Airport","lat":-0.183,"lon":10.75,"elev":164},{"icao":"FOGK","name":"Koulamoutou Mabimbi Airport","lat":-1.18461,"lon":12.4413,"elev":1070},{"icao":"FOGM","name":"Mouilla Ville Airport","lat":-1.84514,"lon":11.0567,"elev":295},{"icao":"FOGO","name":"Oyem Airport","lat":1.5431100130081177,"lon":11.581399917602539,"elev":2158},{"icao":"FOGQ","name":"Okondja Airport","lat":-0.665214,"lon":13.6731,"elev":1325},{"icao":"FOGR","name":"Lambarene Airport","lat":-0.704389,"lon":10.2457,"elev":82},{"icao":"FOGV","name":"Minvoul Airport","lat":2.152413,"lon":12.108044,"elev":1969},{"icao":"FOGW","name":"Alowe Airport","lat":-0.545,"lon":9.444,"elev":600},{"icao":"FOGX","name":"Gamba Airport","lat":-2.785278,"lon":10.047222,"elev":30},{"icao":"FOOB","name":"Bitam Airport","lat":2.07564,"lon":11.4932,"elev":1969},{"icao":"FOOD","name":"Moanda Airport","lat":-1.526558,"lon":13.251332,"elev":1877},{"icao":"FOOE","name":"Mekambo Airport","lat":0.976706,"lon":13.968462,"elev":1673},{"icao":"FOOG","name":"Port Gentil International Airport","lat":-0.711739,"lon":8.75438,"elev":13},{"icao":"FOOH","name":"Omboue Hospital Airport","lat":-1.57473,"lon":9.26269,"elev":33},{"icao":"FOOI","name":"Tchongorove Airport","lat":-1.930801,"lon":9.319577,"elev":48},{"icao":"FOOK","name":"Makokou Airport","lat":0.5792109966278076,"lon":12.890899658203125,"elev":1726},{"icao":"FOOL","name":"Libreville Leon M'ba International Airport","lat":0.4586,"lon":9.41228,"elev":39},{"icao":"FOOM","name":"Mitzic Airport","lat":0.783,"lon":11.55,"elev":1913},{"icao":"FOON","name":"M'Vengue El Hadj Omar Bongo Ondimba International Airport","lat":-1.65616,"lon":13.438,"elev":1450},{"icao":"FOOR","name":"Lastourville Airport","lat":-0.826667,"lon":12.7486,"elev":1585},{"icao":"FOOS","name":"Sette Cama Airport","lat":-2.53732,"lon":9.76386,"elev":10},{"icao":"FOOT","name":"Tchibanga Airport","lat":-2.88848,"lon":10.955429,"elev":269},{"icao":"FOOY","name":"Mayumba Airport","lat":-3.458372,"lon":10.676539,"elev":13},{"icao":"FPPR","name":"Principe Airport","lat":1.661155,"lon":7.411081,"elev":591},{"icao":"FPST","name":"São Tomé International Airport","lat":0.378175,"lon":6.71215,"elev":33},{"icao":"FQAG","name":"Angoche Airport","lat":-16.18187,"lon":39.945217,"elev":121},{"icao":"FQBI","name":"Bilene Airport","lat":-25.265985,"lon":33.238598,"elev":118},{"icao":"FQBR","name":"Beira International Airport","lat":-19.7964,"lon":34.9076,"elev":33},{"icao":"FQCB","name":"Cuamba Airport","lat":-14.815,"lon":36.529999,"elev":1919},{"icao":"FQCH","name":"Chimoio Airport","lat":-19.15130043029785,"lon":33.42900085449219,"elev":2287},{"icao":"FQIA","name":"Inhaca Airport","lat":-25.9971446991,"lon":32.929351806599996,"elev":10},{"icao":"FQIB","name":"Ibo Airport","lat":-12.350174,"lon":40.602297,"elev":27},{"icao":"FQIN","name":"Inhambane Airport","lat":-23.8764,"lon":35.408501,"elev":30},{"icao":"FQLC","name":"Lichinga Airport","lat":-13.274,"lon":35.2663,"elev":4505},{"icao":"FQLU","name":"Lumbo Airport","lat":-15.0331,"lon":40.6717,"elev":33},{"icao":"FQMA","name":"Maputo Airport","lat":-25.920799,"lon":32.572601,"elev":145},{"icao":"FQMD","name":"Mueda Airport","lat":-11.6729,"lon":39.563099,"elev":2789},{"icao":"FQMP","name":"Mocímboa da Praia Airport","lat":-11.3618,"lon":40.3549,"elev":89},{"icao":"FQMR","name":"Marrupa Airport","lat":-13.2251,"lon":37.552101,"elev":2480},{"icao":"FQNC","name":"Nacala Airport","lat":-14.4882,"lon":40.7122,"elev":410},{"icao":"FQNP","name":"Nampula Airport","lat":-15.105600357055664,"lon":39.28179931640625,"elev":1444},{"icao":"FQPB","name":"Pemba Airport","lat":-12.993302,"lon":40.524867,"elev":331},{"icao":"FQPO","name":"Ponta do Ouro Airport","lat":-26.826913,"lon":32.838444,"elev":92},{"icao":"FQQL","name":"Quelimane Airport","lat":-17.855499267578125,"lon":36.86909866333008,"elev":36},{"icao":"FQSG","name":"Songo Airport","lat":-15.6027,"lon":32.773201,"elev":2904},{"icao":"FQTT","name":"Chingozi Airport","lat":-16.104799270629883,"lon":33.640201568603516,"elev":525},{"icao":"FQUG","name":"Ulongwe Airport","lat":-14.7046,"lon":34.352402,"elev":4265},{"icao":"FQVL","name":"Vilankulo Airport","lat":-22.018400192260742,"lon":35.31330108642578,"elev":46},{"icao":"FQXA","name":"Xai-Xai Chongoene Airport","lat":-24.892909,"lon":33.753024,"elev":291},{"icao":"FSAL","name":"Alphonse Airport","lat":-7.00478,"lon":52.7262,"elev":10},{"icao":"FSAS","name":"Assumption Island Airport","lat":-9.74222,"lon":46.506802,"elev":10},{"icao":"FSDA","name":"D'Arros Island Airport","lat":-5.417354,"lon":53.295536,"elev":10},{"icao":"FSDR","name":"Desroches Airport","lat":-5.6967,"lon":53.6558,"elev":10},{"icao":"FSFA","name":"Farquhar Airport","lat":-10.1096,"lon":51.176102,"elev":10},{"icao":"FSIA","name":"Seychelles International Airport","lat":-4.67434,"lon":55.521801,"elev":10},{"icao":"FSMA","name":"Marie-Louise Airport","lat":-6.177405,"lon":53.145429,"elev":9},{"icao":"FSPL","name":"Platte Island Airport","lat":-5.863604,"lon":55.384541,"elev":9},{"icao":"FSPP","name":"Praslin Island Airport","lat":-4.319256,"lon":55.691561,"elev":10},{"icao":"FSSB","name":"Bird Island Airport","lat":-3.723683,"lon":55.206106,"elev":6},{"icao":"FSSD","name":"Denis Island Airport","lat":-3.802067,"lon":55.667439,"elev":10},{"icao":"FSSF","name":"Frégate Island Airport (UNUSABLE)","lat":-4.582785,"lon":55.944928,"elev":610},{"icao":"FSSR","name":"Remire Island Airport","lat":-5.11722,"lon":53.312199,"elev":9},{"icao":"FTTA","name":"Sarh Airport","lat":9.14444,"lon":18.374399,"elev":1198},{"icao":"FTTB","name":"Bongor Airport","lat":10.288345,"lon":15.379561,"elev":1076},{"icao":"FTTC","name":"Abeche Airport","lat":13.847,"lon":20.844299,"elev":1788},{"icao":"FTTD","name":"Moundou Airport","lat":8.628503,"lon":16.074241,"elev":1407},{"icao":"FTTE","name":"Biltine Airport","lat":14.551908,"lon":20.841834,"elev":1680},{"icao":"FTTF","name":"Fada Airport","lat":17.19126,"lon":21.50353,"elev":1788},{"icao":"FTTG","name":"Goz-Beida Airport","lat":12.210946,"lon":21.458472,"elev":1765},{"icao":"FTTH","name":"Lai Airport","lat":9.3979,"lon":16.3125,"elev":1171},{"icao":"FTTI","name":"Ati Airport","lat":13.239778,"lon":18.315893,"elev":1089},{"icao":"FTTJ","name":"N'Djamena International Airport","lat":12.1337,"lon":15.034,"elev":968},{"icao":"FTTK","name":"Bokoro Airport","lat":12.385511,"lon":17.070989,"elev":984},{"icao":"FTTL","name":"Bol-Berim Airport","lat":13.443574,"lon":14.739254,"elev":955},{"icao":"FTTM","name":"Mongo Airport","lat":12.17048,"lon":18.675642,"elev":1414},{"icao":"FTTN","name":"Am Timan Airport","lat":11.0340003967,"lon":20.274000167799997,"elev":1420},{"icao":"FTTP","name":"Pala Airport","lat":9.37806,"lon":14.925,"elev":1532},{"icao":"FTTR","name":"Zouar Airport","lat":20.44813,"lon":16.57185,"elev":2655},{"icao":"FTTS","name":"Bousso Airport","lat":10.483,"lon":16.716999,"elev":1099},{"icao":"FTTU","name":"Mao Airport","lat":14.1456,"lon":15.3144,"elev":1072},{"icao":"FTTY","name":"Faya-Largeau Airport","lat":17.917101,"lon":19.111099,"elev":771},{"icao":"FTTZ","name":"Bardai Zougra Airport","lat":21.448426,"lon":17.053271,"elev":3524},{"icao":"FVCD","name":"Chirundu Airport","lat":-15.998082,"lon":28.899056,"elev":1310},{"icao":"FVCH","name":"Chipinge Airport","lat":-20.206699,"lon":32.6283,"elev":3720},{"icao":"FVCN","name":"Centenary Airport","lat":-16.7341,"lon":31.122,"elev":4058},{"icao":"FVCP","name":"Charles Prince Airport","lat":-17.7516,"lon":30.9247,"elev":4845},{"icao":"FVCZ","name":"Buffalo Range Airport","lat":-21.008101,"lon":31.5786,"elev":1421},{"icao":"FVFA","name":"Victoria Falls International Airport","lat":-18.09589958190918,"lon":25.839000701904297,"elev":3490},{"icao":"FVFG","name":"Fothergill Airport","lat":-16.704523,"lon":28.660112,"elev":1630},{"icao":"FVGG","name":"Gachegache Airport","lat":-16.748077,"lon":28.930312,"elev":1665},{"icao":"FVGR","name":"Grand Reef Airport","lat":-18.9775,"lon":32.450802,"elev":3333},{"icao":"FVJN","name":"Joshua Mqabuko Nkomo International Airport","lat":-20.021254,"lon":28.626296,"elev":4359},{"icao":"FVKB","name":"Kariba International Airport","lat":-16.5198,"lon":28.885,"elev":1706},{"icao":"FVKK","name":"Kwekwe Airport","lat":-18.9333,"lon":29.8428,"elev":4000},{"icao":"FVMA","name":"Marondera Airport","lat":-18.183001,"lon":31.466999,"elev":5370},{"icao":"FVMD","name":"Mount Darwin Airport","lat":-16.769199,"lon":31.559799,"elev":3240},{"icao":"FVME","name":"Masuwe Heliport","lat":-17.96588,"lon":25.81055,"elev":3005},{"icao":"FVMH","name":"Mahenye Airport","lat":-21.231,"lon":32.3336,"elev":930},{"icao":"FVMI","name":"Mubayira Airport","lat":-18.316966,"lon":30.586681,"elev":4102},{"icao":"FVML","name":"Mlibizi Airstrip","lat":-17.9604,"lon":27.1184,"elev":1980},{"icao":"FVMT","name":"Mutoko Airport","lat":-17.4319,"lon":32.184502,"elev":3950},{"icao":"FVMU","name":"Mutare Airport","lat":-18.997499465942,"lon":32.627201080322,"elev":3410},{"icao":"FVMV","name":"Masvingo International Airport","lat":-20.0553,"lon":30.8591,"elev":3595},{"icao":"FVOT","name":"Kotwa Airport","lat":-16.9848,"lon":32.672699,"elev":2450},{"icao":"FVRF","name":"Rifa Airstrip","lat":-16.31318,"lon":28.898235,"elev":1350},{"icao":"FVSH","name":"Zvishavane Airport","lat":-20.289499,"lon":30.0882,"elev":3012},{"icao":"FVTD","name":"Tinfields Airport","lat":-19.941665,"lon":31.425944,"elev":3600},{"icao":"FVTL","name":"Gweru - Thornhill Air Base","lat":-19.436718,"lon":29.861945,"elev":4680},{"icao":"FVWN","name":"Hwange National Park Airport","lat":-18.6299,"lon":27.021,"elev":3543},{"icao":"FVWT","name":"Hwange (Town) Airport","lat":-18.362967,"lon":26.519791,"elev":2500},{"icao":"FWCC","name":"Chintheche Aerodrome","lat":-11.8353,"lon":34.16446,"elev":1650},{"icao":"FWCD","name":"Chelinda Malawi Airport","lat":-10.55,"lon":33.799999,"elev":7759},{"icao":"FWCL","name":"Chileka International Airport","lat":-15.679100036621094,"lon":34.9739990234375,"elev":2555},{"icao":"FWCM","name":"Club Makokola Airport","lat":-14.306483,"lon":35.131477,"elev":1587},{"icao":"FWCS","name":"Ntchisi Airport","lat":-13.3758,"lon":33.864498,"elev":4301},{"icao":"FWCT","name":"Chitipa Airport","lat":-9.7,"lon":33.266998,"elev":4270},{"icao":"FWDW","name":"Dwangwa Airport","lat":-12.517527,"lon":34.131877,"elev":1605},{"icao":"FWKA","name":"Karonga Airport","lat":-9.953571,"lon":33.893264,"elev":1765},{"icao":"FWKG","name":"Kasungu Airport","lat":-13.0146,"lon":33.468601,"elev":3470},{"icao":"FWKI","name":"Kamuzu International Airport","lat":-13.7894,"lon":33.780998,"elev":4035},{"icao":"FWLE","name":"Old Lilongwe Airport","lat":-13.966,"lon":33.701801,"elev":3722},{"icao":"FWLK","name":"Likoma Island Airport","lat":-12.079787,"lon":34.736253,"elev":1600},{"icao":"FWLP","name":"Lifupa Airport","lat":-13.05,"lon":33.150002,"elev":3326},{"icao":"FWMC","name":"Mchinji Airport","lat":-13.8,"lon":32.900002,"elev":3901},{"icao":"FWMY","name":"Monkey Bay Airport","lat":-14.083600044299999,"lon":34.9197006226,"elev":1580},{"icao":"FWSJ","name":"Nsanje Airport","lat":-16.921115,"lon":35.25269,"elev":200},{"icao":"FWSM","name":"Salima Airport","lat":-13.755893,"lon":34.584188,"elev":1688},{"icao":"FWSU","name":"Nchalo Sucoma Airport","lat":-16.269338,"lon":34.877216,"elev":230},{"icao":"FWUU","name":"Mzuzu Airport","lat":-11.4447,"lon":34.011799,"elev":4115},{"icao":"FWZA","name":"Zomba Airport","lat":-15.386309,"lon":35.383575,"elev":2650},{"icao":"FXLK","name":"Lebakeng Airport","lat":-29.8908,"lon":28.6556,"elev":6000},{"icao":"FXLR","name":"Leribe Airport","lat":-28.8556,"lon":28.052799,"elev":5350},{"icao":"FXLS","name":"Lesobeng Airport","lat":-29.755583,"lon":28.357054,"elev":7130},{"icao":"FXMA","name":"Matsaile Airport","lat":-29.840562,"lon":28.77668,"elev":6200},{"icao":"FXMF","name":"Mafeteng Airport","lat":-29.8011,"lon":27.243601,"elev":5350},{"icao":"FXMK","name":"Mokhotlong Airport","lat":-29.281799,"lon":29.0728,"elev":7200},{"icao":"FXMM","name":"Moshoeshoe I International Airport","lat":-29.462299,"lon":27.5525,"elev":5348},{"icao":"FXMU","name":"Mejametalana Air Base","lat":-29.302799,"lon":27.502928,"elev":5105},{"icao":"FXNK","name":"Nkaus Airport","lat":-30.021699905396,"lon":28.196899414062,"elev":5621},{"icao":"FXPG","name":"Pelaneng Airport","lat":-29.088056,"lon":28.497222,"elev":7200},{"icao":"FXQG","name":"Quthing Airport","lat":-30.407499,"lon":27.6933,"elev":5350},{"icao":"FXQN","name":"Qacha's Nek Airport","lat":-30.1117,"lon":28.6719,"elev":6100},{"icao":"FXSH","name":"Sehonghong Airport","lat":-29.731088,"lon":28.767945,"elev":6500},{"icao":"FXSK","name":"Sekakes Airport","lat":-30.0389,"lon":28.3703,"elev":5700},{"icao":"FXSM","name":"Semonkong Airport","lat":-29.8386,"lon":28.059999,"elev":7200},{"icao":"FXSS","name":"Seshutes Airport","lat":-29.267599,"lon":28.552299,"elev":7000},{"icao":"FXTA","name":"Thaba-Tseka Airport","lat":-29.5228,"lon":28.615801,"elev":7500},{"icao":"FXTK","name":"Tlokoeng Airport","lat":-29.233,"lon":28.882999,"elev":7000},{"icao":"FYAA","name":"Ai-Ais Airport","lat":-27.995,"lon":17.5966,"elev":2000},{"icao":"FYAB","name":"Aroab B Airport","lat":-26.7761,"lon":19.633101,"elev":3235},{"icao":"FYAD","name":"Aandster Airstrip","lat":-25.355245,"lon":16.105086,"elev":3312},{"icao":"FYAG","name":"Anib Lodge Landing Site","lat":-24.4347,"lon":18.104401,"elev":3950},{"icao":"FYAH","name":"Okombahe Airfield","lat":-21.296165,"lon":15.396506,"elev":3321},{"icao":"FYAI","name":"Ameib Ranch Airstrip","lat":-21.818012,"lon":15.620645,"elev":null},{"icao":"FYAK","name":"Aussenkehr Airport","lat":-28.4587,"lon":17.4645,"elev":970},{"icao":"FYAL","name":"Auob Lodge Airport","lat":-24.822194,"lon":18.762192,"elev":3730},{"icao":"FYAM","name":"Aminuis Airstrip","lat":-23.6558,"lon":19.3517,"elev":4012},{"icao":"FYAN","name":"Aranos Airport","lat":-24.128295,"lon":19.114591,"elev":3904},{"icao":"FYAR","name":"Arandis Airport","lat":-22.461875,"lon":14.979322,"elev":1905},{"icao":"FYAS","name":"Aus Airport","lat":-26.668127,"lon":16.29312,"elev":4856},{"icao":"FYAT","name":"Autabib Airfield","lat":-23.009534,"lon":17.686425,"elev":4836},{"icao":"FYAV","name":"Ariamsvlei Airport","lat":-28.127166,"lon":19.837872,"elev":2549},{"icao":"FYBC","name":"Bethanien Airport","lat":-26.5448,"lon":17.1816,"elev":3260},{"icao":"FYBE","name":"Betesda Airstrip","lat":-24.618554,"lon":15.997697,"elev":3056},{"icao":"FYBI","name":"Arabi Hunting Farm Airfield","lat":-26.391909,"lon":19.68725,"elev":3108},{"icao":"FYBJ","name":"Bitterwasser Lodge & Flying Club Airfield","lat":-23.875,"lon":17.9911,"elev":4167},{"icao":"FYBK","name":"Brukkaros Landing Strip","lat":-25.69945,"lon":18.053049,"elev":3190},{"icao":"FYBM","name":"B2Gold Otjikoto Mine Airport","lat":-19.992261,"lon":17.127671,"elev":4998},{"icao":"FYBO","name":"Blumfelde Airfield","lat":-23.549891,"lon":18.323268,"elev":4253},{"icao":"FYBR","name":"Berseba Airfield","lat":-25.982345,"lon":17.839329,"elev":3038},{"icao":"FYDN","name":"Doro Nawas Airstrip","lat":-20.451007,"lon":14.287337,"elev":1525},{"icao":"FYEF","name":"Epupa Falls Airstrip.","lat":-17.029332,"lon":13.210312,"elev":2549},{"icao":"FYEG","name":"Erongo Mountain Ombu Airstrip","lat":-21.667778,"lon":15.671146,"elev":4498},{"icao":"FYEH","name":"Ehomba Airport","lat":-17.488,"lon":13.836836,"elev":3578},{"icao":"FYEK","name":"Epukiro Airport","lat":-21.786699,"lon":19.1061,"elev":4892},{"icao":"FYEN","name":"Eenhana Airport","lat":-17.483,"lon":16.322001,"elev":3660},{"icao":"FYGB","name":"Gobabis Airport","lat":-22.5044,"lon":18.973101,"elev":4731},{"icao":"FYGF","name":"Grootfontein Airport","lat":-19.6022,"lon":18.1227,"elev":4636},{"icao":"FYHI","name":"Halali Airport","lat":-19.0285,"lon":16.4585,"elev":3639},{"icao":"FYHV","name":"Hartmann Valley Airstrip","lat":-17.377134,"lon":12.254745,"elev":2045},{"icao":"FYKA","name":"Karibib Airport","lat":-21.847799,"lon":15.9028,"elev":3829},{"icao":"FYKB","name":"Karasburg Airport","lat":-28.0297,"lon":18.7385,"elev":3275},{"icao":"FYKJ","name":"Kamanjab Airport","lat":-19.520599,"lon":14.8233,"elev":4259},{"icao":"FYKM","name":"Katima Mulilo Airport","lat":-17.634258,"lon":24.176688,"elev":3144},{"icao":"FYKN","name":"Okonjima Airport","lat":-20.866986,"lon":16.639363,"elev":5357},{"icao":"FYKR","name":"Okorusu Mine Airstrip","lat":-20.062512,"lon":16.725565,"elev":4613},{"icao":"FYKS","name":"Koes Airport","lat":-25.934582,"lon":19.115206,"elev":3175},{"icao":"FYKT","name":"Keetmanshoop Airport","lat":-26.539801,"lon":18.111401,"elev":3506},{"icao":"FYKU","name":"Kuidas Airstrip","lat":-20.650026,"lon":13.860082,"elev":800},{"icao":"FYKW","name":"Okangwati Airport","lat":-17.43873,"lon":13.2782,"elev":3555},{"icao":"FYKX","name":"Khorixas Airport","lat":-20.366192,"lon":15.059298,"elev":3353},{"icao":"FYKY","name":"Uitkyk Airport","lat":-25.122049,"lon":16.265716,"elev":4040},{"icao":"FYKZ","name":"Kuzikus Airstrip","lat":-23.229516,"lon":18.3867,"elev":4417},{"icao":"FYLO","name":"Lodge Okajo Airstrip","lat":-21.727778,"lon":16.195833,"elev":4206},{"icao":"FYLR","name":"La Rochelle Airfield","lat":-18.978958,"lon":17.86126,"elev":3873},{"icao":"FYLS","name":"Lianshulu Lodge Airstrip","lat":-18.116495,"lon":23.39346,"elev":3143},{"icao":"FYLV","name":"Leonardville Airport","lat":-23.51502,"lon":18.789507,"elev":4166},{"icao":"FYLW","name":"Langverwacht Airstrip","lat":-25.000236,"lon":18.532866,"elev":3786},{"icao":"FYLZ","name":"Luderitz Airport","lat":-26.687400817871094,"lon":15.242899894714355,"elev":457},{"icao":"FYME","name":"Mount Etjo Airport","lat":-21.0233001709,"lon":16.4528007507,"elev":5000},{"icao":"FYMG","name":"Midgard Airport","lat":-22.0106,"lon":17.37,"elev":5125},{"icao":"FYMH","name":"Maltahoehe Airstrip","lat":-24.770477,"lon":16.977822,"elev":4511},{"icao":"FYMI","name":"Mile 72 Airfield","lat":-21.870352,"lon":14.079146,"elev":51},{"icao":"FYMK","name":"Kunene Mouth Airstrip","lat":-17.270771,"lon":11.762853,"elev":15},{"icao":"FYML","name":"Mariental Airport","lat":-24.6054,"lon":17.9254,"elev":3650},{"icao":"FYMM","name":"Omatako Hunting Airstrip","lat":-21.542781,"lon":16.798682,"elev":4848},{"icao":"FYMO","name":"Mokuti Lodge Airport","lat":-18.812799,"lon":17.059401,"elev":3665},{"icao":"FYMP","name":"Okamapu Landing Site","lat":-21.745815,"lon":17.887208,"elev":5541},{"icao":"FYMW","name":"Moewe Bay Airport","lat":-19.389049,"lon":12.743769,"elev":30},{"icao":"FYNA","name":"Namutoni Airport","lat":-18.8064,"lon":16.9272,"elev":3579},{"icao":"FYNB","name":"Kansimba Landing Site","lat":-22.044443,"lon":16.178859,"elev":4098},{"icao":"FYNG","name":"Ongava Lodge Airstrip","lat":-19.328533,"lon":15.915003,"elev":3740},{"icao":"FYOA","name":"Ondangwa Airport","lat":-17.878201,"lon":15.9526,"elev":3599},{"icao":"FYOE","name":"Omega Airport","lat":-18.0303,"lon":22.189699,"elev":3346},{"icao":"FYOG","name":"Oranjemund Airport","lat":-28.5847,"lon":16.446699,"elev":14},{"icao":"FYOJ","name":"Outjo Airport","lat":-20.0753,"lon":16.124701,"elev":4334},{"icao":"FYOO","name":"Okaukuejo Airport","lat":-19.1492,"lon":15.9119,"elev":3911},{"icao":"FYOP","name":"Opuwa Airport","lat":-18.056022,"lon":13.852061,"elev":3770},{"icao":"FYOS","name":"Oshakati Airport","lat":-17.797,"lon":15.6993,"elev":3616},{"icao":"FYOW","name":"Otjiwarongo Airport","lat":-20.433012,"lon":16.660801,"elev":4859},{"icao":"FYRC","name":"Ruacana Airport","lat":-17.420601,"lon":14.3717,"elev":3765},{"icao":"FYRF","name":"Rietfontein Airport","lat":-26.728918,"lon":20.033333,"elev":2750},{"icao":"FYRH","name":"Rehoboth (Oanob Resort) Airport","lat":-23.313496,"lon":17.042046,"elev":4537},{"icao":"FYRU","name":"Rundu Airport","lat":-17.956499,"lon":19.7194,"elev":3627},{"icao":"FYSA","name":"Skorpion Mine Airport","lat":-27.8764,"lon":16.6478,"elev":1870},{"icao":"FYSI","name":"Ndonga Linena Airstrip","lat":-17.98345,"lon":20.534708,"elev":3443},{"icao":"FYSL","name":"Sossusvlei Mountain Lodge Airport","lat":-24.803301,"lon":15.8911,"elev":2844},{"icao":"FYSM","name":"Swakopmund Municipal Aerodrome","lat":-22.6619,"lon":14.5681,"elev":207},{"icao":"FYSS","name":"Sesriem Airport","lat":-24.5128,"lon":15.7467,"elev":2454},{"icao":"FYTE","name":"Terrace Bay Airport","lat":-19.972112,"lon":13.025486,"elev":32},{"icao":"FYTF","name":"Twyfelfontein Airport","lat":-20.54424,"lon":14.35879,"elev":1772},{"icao":"FYTK","name":"Tsumkwe Airport","lat":-19.584999,"lon":20.452801,"elev":3780},{"icao":"FYTM","name":"Tsumeb Airport","lat":-19.262079,"lon":17.732509,"elev":4353},{"icao":"FYUS","name":"Uis Mine Airport","lat":-21.230032,"lon":14.866888,"elev":2644},{"icao":"FYWB","name":"Walvis Bay Airport","lat":-22.979332,"lon":14.647102,"elev":299},{"icao":"FYWE","name":"Eros Airport","lat":-22.60492,"lon":17.079002,"elev":5575},{"icao":"FYWH","name":"Hosea Kutako International Airport","lat":-22.4799,"lon":17.4709,"elev":5640},{"icao":"FYWL","name":"Wabi Lodge Airstrip","lat":-20.330422,"lon":17.535482,"elev":4595},{"icao":"FYWN","name":"Waterberg Wilderness Airstrip","lat":-20.486877,"lon":17.313874,"elev":4604},{"icao":"FYZR","name":"Zebra River Lodge Airstrip","lat":-24.524926,"lon":16.297041,"elev":4305},{"icao":"FZAA","name":"Ndjili International Airport","lat":-4.38575,"lon":15.4446,"elev":1027},{"icao":"FZAB","name":"Ndolo Airport","lat":-4.32666015625,"lon":15.327500343323,"elev":915},{"icao":"FZAD","name":"Celo Zongo Airport","lat":-4.790881,"lon":14.905695,"elev":1660},{"icao":"FZAG","name":"Muanda Airport","lat":-5.930637,"lon":12.351334,"elev":89},{"icao":"FZAH","name":"Tshela Airport","lat":-4.983,"lon":12.933,"elev":361},{"icao":"FZAJ","name":"Boma Airport","lat":-5.854,"lon":13.064,"elev":26},{"icao":"FZAL","name":"Luozi Airport","lat":-4.943881,"lon":14.123337,"elev":722},{"icao":"FZAM","name":"Tshimpi Airport","lat":-5.79961,"lon":13.4404,"elev":1115},{"icao":"FZAN","name":"Inga Airport","lat":-5.530681,"lon":13.578766,"elev":741},{"icao":"FZAP","name":"Lukala Airport","lat":-5.497948,"lon":14.528839,"elev":1312},{"icao":"FZAR","name":"N'Kolo-Fuma Airport","lat":-5.421,"lon":14.8169,"elev":1476},{"icao":"FZAW","name":"Kwilu-Ngongo Airport","lat":-5.5,"lon":14.7,"elev":1296},{"icao":"FZAY","name":"Mvula Sanda Airport","lat":-5.62788,"lon":13.423684,"elev":1148},{"icao":"FZBA","name":"Inongo Airport","lat":-1.94722,"lon":18.285801,"elev":1040},{"icao":"FZBB","name":"Bongimba Airport","lat":-3.407612,"lon":20.084124,"elev":1476},{"icao":"FZBD","name":"Oshwe Airport","lat":-3.423012,"lon":19.419662,"elev":1150},{"icao":"FZBE","name":"Beno Airport","lat":-3.6,"lon":17.783001,"elev":1345},{"icao":"FZBF","name":"Bonkita Airport","lat":-3.109085,"lon":18.786256,"elev":931},{"icao":"FZBI","name":"Nioki Airport","lat":-2.717453,"lon":17.685735,"elev":1043},{"icao":"FZBJ","name":"Mushie Airport","lat":-3.007239,"lon":16.925898,"elev":1214},{"icao":"FZBK","name":"Boshwe Airport","lat":-3.06666,"lon":18.641701,"elev":1181},{"icao":"FZBL","name":"Djokele Airport","lat":-2.970159,"lon":17.105026,"elev":1007},{"icao":"FZBN","name":"Malebo Airport","lat":-2.46461,"lon":16.48034,"elev":1411},{"icao":"FZBO","name":"Bandundu Airport","lat":-3.31132,"lon":17.381701,"elev":1063},{"icao":"FZBQ","name":"Bindja Airport","lat":-3.379255,"lon":19.596348,"elev":1201},{"icao":"FZBS","name":"Semendwa Airport","lat":-3.237609,"lon":18.133965,"elev":1148},{"icao":"FZBT","name":"Kiri Airport","lat":-1.499806,"lon":18.928456,"elev":1013},{"icao":"FZBU","name":"Ipeke Airport","lat":-2.538084,"lon":18.244686,"elev":1017},{"icao":"FZBV","name":"Kutu-Kempili Airport","lat":-2.729542,"lon":18.106874,"elev":984},{"icao":"FZBW","name":"Basengele Airport","lat":-1.861131,"lon":17.960973,"elev":1309},{"icao":"FZCA","name":"Kikwit Airport","lat":-5.03577,"lon":18.785601,"elev":1572},{"icao":"FZCB","name":"Idiofa Airport","lat":-4.970605,"lon":19.57867,"elev":2300},{"icao":"FZCD","name":"Vanga Airport","lat":-4.4,"lon":18.466999,"elev":1312},{"icao":"FZCF","name":"Kahemba Airport","lat":-7.341012,"lon":18.989182,"elev":3425},{"icao":"FZCI","name":"Banga Airport","lat":-5.458965,"lon":20.462208,"elev":2493},{"icao":"FZCK","name":"Kajiji Airport","lat":-7.647706,"lon":18.49617,"elev":3510},{"icao":"FZCP","name":"Popokabaka Airport","lat":-5.739467,"lon":16.587489,"elev":1575},{"icao":"FZCR","name":"Busala Airport","lat":-4.167435,"lon":18.698932,"elev":1312},{"icao":"FZCU","name":"Ito Airport","lat":-3.333,"lon":17.466999,"elev":1148},{"icao":"FZCV","name":"Masi Manimba Airport","lat":-4.783,"lon":17.85,"elev":1952},{"icao":"FZCW","name":"Kikongo Sur Wamba Airport","lat":-4.267,"lon":17.267,"elev":1312},{"icao":"FZCY","name":"Yuki Airport","lat":-4.083,"lon":19.433001,"elev":1398},{"icao":"FZDA","name":"Malanga Airport","lat":-5.533,"lon":14.85,"elev":1247},{"icao":"FZDE","name":"Tono Airport","lat":-6.33422,"lon":18.21408,"elev":2461},{"icao":"FZDF","name":"Nzamba Airport","lat":-6.83261,"lon":17.69593,"elev":2953},{"icao":"FZDG","name":"Nyanga Airport","lat":-5.965924,"lon":20.435936,"elev":2231},{"icao":"FZDJ","name":"Mutena Airport","lat":-6.763782,"lon":21.159342,"elev":2395},{"icao":"FZDK","name":"Kipata Katika Airport","lat":-5.033,"lon":17.65,"elev":2133},{"icao":"FZDN","name":"Mongo Wa Kenda Airport","lat":-6.91785,"lon":16.91941,"elev":1804},{"icao":"FZDO","name":"Moanza Airport","lat":-5.533,"lon":17.617001,"elev":2297},{"icao":"FZDP","name":"Mukedi Airport","lat":-5.7,"lon":19.767,"elev":1804},{"icao":"FZDQ","name":"Mazelele Airport","lat":-7.283,"lon":17.033001,"elev":1650},{"icao":"FZDR","name":"Bokela Airport","lat":-1.24741,"lon":22.00784,"elev":1210},{"icao":"FZDS","name":"Yasa Bongo Airport","lat":-4.45,"lon":17.783001,"elev":2008},{"icao":"FZEA","name":"Mbandaka Airport","lat":0.0226000007242,"lon":18.2887001038,"elev":1040},{"icao":"FZEI","name":"Ingende Airport","lat":-0.30953,"lon":18.94545,"elev":1246},{"icao":"FZEM","name":"Yembe Moke Airport","lat":-4.683,"lon":18.216999,"elev":1220},{"icao":"FZEN","name":"Basankusu Airport","lat":1.224789,"lon":19.788097,"elev":1217},{"icao":"FZEO","name":"Beongo Airport","lat":1.017,"lon":20.6,"elev":1279},{"icao":"FZEP","name":"Mentole Airport","lat":1.317,"lon":20.700001,"elev":1295},{"icao":"FZER","name":"Kodoro Airport","lat":1.283,"lon":20.333,"elev":1312},{"icao":"FZFA","name":"Libenge Airport","lat":3.626584,"lon":18.638477,"elev":1125},{"icao":"FZFC","name":"Engengele Airport","lat":2.116575,"lon":22.647328,"elev":1279},{"icao":"FZFD","name":"Gbadolite Airport","lat":4.252745,"lon":20.975271,"elev":1509},{"icao":"FZFE","name":"Abumumbazi Airport","lat":3.695793,"lon":22.150068,"elev":1499},{"icao":"FZFH","name":"Mokaria-Yamoleka Airport","lat":2.117,"lon":23.283001,"elev":1378},{"icao":"FZFJ","name":"Goyongo Airport","lat":4.176768,"lon":19.800625,"elev":1640},{"icao":"FZFK","name":"Gemena Airport","lat":3.23537,"lon":19.771299,"elev":1378},{"icao":"FZFP","name":"Kotakoli Airbase","lat":4.156991,"lon":21.66667,"elev":1801},{"icao":"FZFQ","name":"Mpaka Airport","lat":4.106144,"lon":19.230709,"elev":1969},{"icao":"FZFR","name":"Mombongo Airport","lat":1.65,"lon":23.15,"elev":1476},{"icao":"FZFS","name":"Karawa Airport","lat":3.36156,"lon":20.298979,"elev":1640},{"icao":"FZFT","name":"Tandala Airport","lat":2.978206,"lon":19.351065,"elev":1640},{"icao":"FZFU","name":"Bumba Airport","lat":2.183261,"lon":22.479572,"elev":null},{"icao":"FZFW","name":"Gwaka Airport","lat":2.473384,"lon":20.091419,"elev":1476},{"icao":"FZGA","name":"Lisala Airport","lat":2.17066,"lon":21.496901,"elev":1509},{"icao":"FZGC","name":"Bolila Airport","lat":1.85,"lon":23.117001,"elev":1279},{"icao":"FZGE","name":"Binga Airport","lat":2.36688,"lon":20.51299,"elev":1468},{"icao":"FZGF","name":"Bokungu Airport","lat":-0.589819,"lon":22.299843,"elev":1214},{"icao":"FZGI","name":"Yalingimba Airport","lat":2.272462,"lon":22.847528,"elev":1427},{"icao":"FZGN","name":"Boende Airport","lat":-0.286652,"lon":20.883551,"elev":1168},{"icao":"FZGT","name":"Boteka Airport","lat":-0.317,"lon":19.066999,"elev":1247},{"icao":"FZGV","name":"Ikela Airport","lat":-1.048109,"lon":23.372501,"elev":1283},{"icao":"FZIA","name":"Kisangani Simisini Airport","lat":0.5175,"lon":25.155001,"elev":1289},{"icao":"FZIC","name":"Bangoka International Airport","lat":0.481638997793,"lon":25.3379993439,"elev":1417},{"icao":"FZIR","name":"Yangambi Airport","lat":0.783,"lon":24.466999,"elev":1378},{"icao":"FZIZ","name":"Lokutu Airport","lat":1.131052,"lon":23.602301,"elev":1214},{"icao":"FZJB","name":"Doko Airport","lat":3.233,"lon":29.566999,"elev":2874},{"icao":"FZJC","name":"Dungu-Uye Airport","lat":3.597484,"lon":28.57674,"elev":2378},{"icao":"FZJD","name":"Doruma Airport","lat":4.717158,"lon":27.691089,"elev":2378},{"icao":"FZJF","name":"Aba Airport","lat":3.859556,"lon":30.253676,"elev":3051},{"icao":"FZJH","name":"Matari Airport","lat":2.82761,"lon":27.588301,"elev":2438},{"icao":"FZJI","name":"Watsa Airport","lat":2.994577,"lon":29.547772,"elev":3199},{"icao":"FZJK","name":"Faradje Airport","lat":3.7149,"lon":29.71261,"elev":2690},{"icao":"FZJN","name":"Luniemu Airport","lat":-8.208429,"lon":24.702759,"elev":3272},{"icao":"FZJR","name":"Kere Kere Airport","lat":2.731236,"lon":30.533323,"elev":4429},{"icao":"FZKA","name":"Bunia Airport","lat":1.565743,"lon":30.220685,"elev":4045},{"icao":"FZKB","name":"Bambili-Dingila Airport","lat":3.655191,"lon":26.083345,"elev":2050},{"icao":"FZKF","name":"Kilomines Airport","lat":1.817,"lon":30.233,"elev":4593},{"icao":"FZKI","name":"Yedi Airport","lat":2.033,"lon":24.799999,"elev":3642},{"icao":"FZKJ","name":"Buta Zega Airport","lat":2.818058,"lon":24.793997,"elev":1378},{"icao":"FZKN","name":"Aketi Airport","lat":2.730399,"lon":23.793468,"elev":1230},{"icao":"FZMA","name":"Bukavu Kavumu Airport","lat":-2.30898,"lon":28.8088,"elev":5643},{"icao":"FZMC","name":"Mulungu Airport","lat":-2.975603,"lon":27.868892,"elev":2400},{"icao":"FZMD","name":"Nzovu Airport","lat":-2.574118,"lon":27.990112,"elev":1970},{"icao":"FZMP","name":"Kimano Ii Airport","lat":-4.383,"lon":28.35,"elev":2461},{"icao":"FZMW","name":"Shabunda Airport","lat":-2.683,"lon":27.333,"elev":1837},{"icao":"FZNA","name":"Goma International Airport","lat":-1.66617,"lon":29.237929,"elev":5089},{"icao":"FZNB","name":"Katale Airport","lat":-1.30472,"lon":29.373899,"elev":4589},{"icao":"FZNC","name":"Rutshuru Airport","lat":-1.167,"lon":29.417,"elev":3707},{"icao":"FZNF","name":"Lubero Airport","lat":-0.139505,"lon":29.241677,"elev":5906},{"icao":"FZNI","name":"Ishasha Airport","lat":-0.7415,"lon":29.6245,"elev":3390},{"icao":"FZNP","name":"Beni Airport","lat":0.575,"lon":29.4739,"elev":3517},{"icao":"FZNQ","name":"Obaye Airport","lat":-1.335654,"lon":27.728529,"elev":2000},{"icao":"FZNR","name":"Rwindi Airport","lat":-0.796652,"lon":29.28966,"elev":3412},{"icao":"FZNS","name":"Wageni Airport","lat":0.510171,"lon":29.475803,"elev":3786},{"icao":"FZOA","name":"Kindu Airport","lat":-2.91917991638,"lon":25.915399551399997,"elev":1630},{"icao":"FZOB","name":"Tingi-Tingi Airport","lat":-0.7625,"lon":26.609699,"elev":862},{"icao":"FZOC","name":"Kamisuku Airport","lat":-2.55,"lon":26.616667,"elev":null},{"icao":"FZOD","name":"Kinkungwa Airport","lat":-2.578,"lon":26.733999,"elev":1808},{"icao":"FZOE","name":"Kampene Airport","lat":-3.593609,"lon":26.703024,"elev":2034},{"icao":"FZOF","name":"Kiapupe Airport","lat":-2.9,"lon":27.299999,"elev":3281},{"icao":"FZOG","name":"Lulingu Tshionka Airport","lat":-2.316583,"lon":27.526245,"elev":1968},{"icao":"FZOH","name":"Moga Airport","lat":-2.467,"lon":26.799999,"elev":2018},{"icao":"FZOJ","name":"Obokote Airport","lat":-0.85,"lon":26.333,"elev":1378},{"icao":"FZOK","name":"Kasongo Airport","lat":-4.524032,"lon":26.60023,"elev":1785},{"icao":"FZOO","name":"Kailo Airport","lat":-2.633,"lon":26.1,"elev":1804},{"icao":"FZOP","name":"Punia Airport","lat":-1.390698,"lon":26.348146,"elev":1742},{"icao":"FZOQ","name":"Punia-Basenge Airport","lat":-1.483139,"lon":26.44018,"elev":1738},{"icao":"FZOR","name":"Saulia Airport","lat":-1.533,"lon":26.533001,"elev":1870},{"icao":"FZOS","name":"Kasese Airport","lat":-1.638378,"lon":27.084326,"elev":1863},{"icao":"FZOT","name":"Phibraki Airport","lat":-2.933,"lon":27.533001,"elev":2100},{"icao":"FZPB","name":"Kamituga Airport","lat":-3.045631,"lon":28.167955,"elev":3871},{"icao":"FZPC","name":"Lugushwa Airport","lat":-3.356858,"lon":27.870898,"elev":2300},{"icao":"FZQA","name":"Lubumbashi International Airport","lat":-11.5913000107,"lon":27.5308990479,"elev":4295},{"icao":"FZQC","name":"Pweto Airport","lat":-8.400768,"lon":28.926285,"elev":3625},{"icao":"FZQF","name":"Fungurume Airport","lat":-10.530346,"lon":26.325903,"elev":3855},{"icao":"FZQG","name":"Kasenga Airport","lat":-10.355228,"lon":28.617243,"elev":3146},{"icao":"FZQH","name":"Katwe Airport","lat":-10.55,"lon":27.85,"elev":5577},{"icao":"FZQJ","name":"Mwadingusha Airport","lat":-10.756564,"lon":27.215524,"elev":3707},{"icao":"FZQM","name":"Kolwezi Airport","lat":-10.7659,"lon":25.505699,"elev":5007},{"icao":"FZQN","name":"Mutshatsha Airport","lat":-10.56258,"lon":24.416771,"elev":3806},{"icao":"FZQP","name":"Kisenge Airport","lat":-10.666955,"lon":23.174243,"elev":3412},{"icao":"FZQU","name":"Lubudi Airport","lat":-9.933,"lon":26,"elev":4541},{"icao":"FZQV","name":"Mitwaba Airport","lat":-8.645,"lon":27.344999,"elev":5240},{"icao":"FZRA","name":"Manono Airport","lat":-7.28889,"lon":27.3944,"elev":2077},{"icao":"FZRB","name":"Moba Airport","lat":-7.08488,"lon":29.737072,"elev":2953},{"icao":"FZRC","name":"Mukoy Airport","lat":-7.549181,"lon":28.673115,"elev":5249},{"icao":"FZRE","name":"Bukena Airport","lat":-7.777828,"lon":27.215881,"elev":3868},{"icao":"FZRF","name":"Kalemie Airport","lat":-5.87556,"lon":29.25,"elev":2569},{"icao":"FZRJ","name":"Pepa Airport","lat":-7.717201,"lon":29.809685,"elev":6562},{"icao":"FZRK","name":"Kansimba Airport","lat":-7.323646,"lon":29.176683,"elev":5413},{"icao":"FZRL","name":"Lusinga Airport","lat":-8.933,"lon":27.183001,"elev":5840},{"icao":"FZRM","name":"Kabalo Airport","lat":-6.083,"lon":26.917,"elev":1840},{"icao":"FZRN","name":"Nyunzu Airport","lat":-5.951063,"lon":28.035564,"elev":2297},{"icao":"FZRO","name":"Luvua Airport","lat":-7.927827,"lon":28.527288,"elev":4298},{"icao":"FZRQ","name":"Kongolo Airport","lat":-5.393898,"lon":26.989932,"elev":1850},{"icao":"FZSA","name":"Kamina Air Base","lat":-8.64202,"lon":25.252899,"elev":3543},{"icao":"FZSB","name":"Kamina City Airport","lat":-8.728878,"lon":24.991407,"elev":3475},{"icao":"FZSD","name":"Sandoa Airport","lat":-9.715488,"lon":22.929325,"elev":3022},{"icao":"FZSI","name":"Dilolo Airport","lat":-10.757847,"lon":22.342672,"elev":3378},{"icao":"FZSJ","name":"Kasaji Airport","lat":-10.371989,"lon":23.42577,"elev":3297},{"icao":"FZSK","name":"Kapanga Airport","lat":-8.371157,"lon":22.647457,"elev":3025},{"icao":"FZTK","name":"Kaniama Airport","lat":-7.599343,"lon":24.158592,"elev":2772},{"icao":"FZTL","name":"Luena Airport","lat":-9.469211,"lon":25.759335,"elev":2349},{"icao":"FZTS","name":"Kasese Kaniama Airport","lat":-7.698494,"lon":24.049416,"elev":2871},{"icao":"FZUA","name":"Kananga Airport","lat":-5.90005,"lon":22.4692,"elev":2139},{"icao":"FZUG","name":"Luiza Airport","lat":-7.189971,"lon":22.39254,"elev":2890},{"icao":"FZUH","name":"Moma Airport","lat":-7.235189,"lon":22.608833,"elev":2789},{"icao":"FZUI","name":"Mboi Airport","lat":-6.841893,"lon":22.008533,"elev":2789},{"icao":"FZUK","name":"Tshikapa Airport","lat":-6.43833,"lon":20.794701,"elev":1595},{"icao":"FZUM","name":"Mutoto Airport","lat":-5.7,"lon":23.716999,"elev":2297},{"icao":"FZUN","name":"Luebo Airport","lat":-5.35,"lon":21.333,"elev":1640},{"icao":"FZUO","name":"Musese Airport","lat":-5.5,"lon":21.433001,"elev":1870},{"icao":"FZUP","name":"Diboko Airport","lat":-7.00361,"lon":21.2442,"elev":2431},{"icao":"FZUS","name":"Tshikaji Airport","lat":-5.977018,"lon":22.457771,"elev":2287},{"icao":"FZUV","name":"Kalonda Airport","lat":-6.467,"lon":20.799999,"elev":1873},{"icao":"FZVA","name":"Lodja Airport","lat":-3.462745,"lon":23.615162,"elev":1647},{"icao":"FZVC","name":"Kole Sur Lukenie Airport","lat":-3.419344,"lon":22.516479,"elev":1542},{"icao":"FZVD","name":"Dingele Airport","lat":-3.609192,"lon":24.569142,"elev":1985},{"icao":"FZVE","name":"Lomela Airport","lat":-2.290361,"lon":23.35423,"elev":1434},{"icao":"FZVG","name":"Katako'kombe Airport","lat":-3.457053,"lon":24.423637,"elev":1978},{"icao":"FZVH","name":"Shongamba Airport","lat":-4.35,"lon":21.283001,"elev":2133},{"icao":"FZVI","name":"Lusambo Airport","lat":-4.96167,"lon":23.3783,"elev":1407},{"icao":"FZVJ","name":"Tshumbe Airport","lat":-4.039285,"lon":24.365616,"elev":1804},{"icao":"FZVK","name":"Lukombe-Batwa Airport","lat":-4.333,"lon":22.083,"elev":1640},{"icao":"FZVM","name":"Mweka Airport","lat":-4.855027,"lon":21.541786,"elev":1968},{"icao":"FZVN","name":"Wembo-Nyama Airport","lat":-4.122406,"lon":24.511399,"elev":1801},{"icao":"FZVO","name":"Bena-Dibele Airport","lat":-4.072623,"lon":22.841091,"elev":1738},{"icao":"FZVP","name":"Dikungu Airport","lat":-4.03953,"lon":24.470501,"elev":1833},{"icao":"FZVR","name":"Basongo Airport","lat":-4.315802,"lon":20.414891,"elev":1640},{"icao":"FZVS","name":"Ilebo Airport","lat":-4.329919,"lon":20.590124,"elev":1450},{"icao":"FZVT","name":"Dekese Airport","lat":-3.50612,"lon":21.409121,"elev":1279},{"icao":"FZVU","name":"Idumbe Airport","lat":-3.917,"lon":21.583,"elev":1847},{"icao":"FZWA","name":"Mbuji Mayi Airport","lat":-6.121240139010001,"lon":23.569000244099996,"elev":2221},{"icao":"FZWB","name":"Bibanga Airport","lat":-6.25336,"lon":23.945979,"elev":2953},{"icao":"FZWE","name":"Mwene-Ditu Airport","lat":-6.980742,"lon":23.434739,"elev":3198},{"icao":"FZWF","name":"Kipushi Airport","lat":-6.136394,"lon":25.159314,"elev":2953},{"icao":"FZWI","name":"Kashia Airport","lat":-7.22216,"lon":23.758707,"elev":2887},{"icao":"FZWL","name":"Munkamba Airport","lat":-5.760603,"lon":23.05584,"elev":2230},{"icao":"FZWS","name":"Lubao Airport","lat":-5.389327,"lon":25.743198,"elev":2625},{"icao":"FZWT","name":"Tunta Airport","lat":-6.120761,"lon":24.546204,"elev":2766}]