[{"icao":"GAAO","name":"Ansongo Airport","lat":15.700633,"lon":0.494052,"elev":853},{"icao":"GABD","name":"Bandiagara Airport","lat":14.336931,"lon":-3.609778,"elev":1312},{"icao":"GABF","name":"Bafoulabé Airport","lat":13.80694,"lon":-10.84779,"elev":380},{"icao":"GABG","name":"Bougouni Airport","lat":11.441892,"lon":-7.506888,"elev":1139},{"icao":"GABR","name":"Bourem Airport","lat":17.0262,"lon":-0.4063,"elev":941},{"icao":"GABS","name":"Modibo Keita International Airport","lat":12.5335,"lon":-7.94994,"elev":1247},{"icao":"GADZ","name":"Douentza Airport","lat":15.003552,"lon":-2.919188,"elev":984},{"icao":"GAGL","name":"Aguelhok Heliport","lat":19.463672,"lon":0.865674,"elev":1391},{"icao":"GAGM","name":"Goundam Airport","lat":16.358426,"lon":-3.604536,"elev":866},{"icao":"GAGO","name":"Gao International Airport","lat":16.248466,"lon":-0.005389,"elev":870},{"icao":"GAKA","name":"Kenieba Airport","lat":12.839046,"lon":-11.253397,"elev":449},{"icao":"GAKD","name":"Kayes Dag Dag Airport","lat":14.482521,"lon":-11.399335,"elev":164},{"icao":"GAKL","name":"Kidal Airport","lat":18.433001,"lon":1.417,"elev":1496},{"icao":"GAKN","name":"Kolokani Airport","lat":13.533,"lon":-8.05,"elev":1457},{"icao":"GAKO","name":"Koutiala Airport","lat":12.351048,"lon":-5.429471,"elev":1240},{"icao":"GAKT","name":"Kita Airport","lat":13.067,"lon":-9.483,"elev":1122},{"icao":"GAMB","name":"Mopti Ambodédjo International Airport","lat":14.5128,"lon":-4.07956,"elev":906},{"icao":"GAMK","name":"Menaka Airport","lat":15.929102,"lon":2.346997,"elev":899},{"icao":"GANF","name":"Niafunke Airport","lat":15.924035,"lon":-4.007727,"elev":866},{"icao":"GANK","name":"Nara Airport","lat":15.22913,"lon":-7.261965,"elev":889},{"icao":"GANR","name":"Nioro du Sahel Airport","lat":15.2381,"lon":-9.57611,"elev":778},{"icao":"GASK","name":"Sikasso Airport","lat":11.328611,"lon":-5.684722,"elev":1378},{"icao":"GATB","name":"Tombouktou Airport","lat":16.730499,"lon":-3.00758,"elev":863},{"icao":"GATS","name":"Tessalit Airport","lat":20.243,"lon":0.977308,"elev":1621},{"icao":"GAYE","name":"Yélimané Airport","lat":15.123682,"lon":-10.571177,"elev":325},{"icao":"GBYD","name":"Banjul International Airport","lat":13.338,"lon":-16.652201,"elev":95},{"icao":"GCDC","name":"Nuestra Señora de Candelaria University Hospital Helipad","lat":28.448687,"lon":-16.28462,"elev":820},{"icao":"GCFV","name":"Fuerteventura Airport","lat":28.4527,"lon":-13.8638,"elev":85},{"icao":"GCGM","name":"La Gomera Airport","lat":28.0296,"lon":-17.2146,"elev":716},{"icao":"GCGO","name":"San Sebastián de La Gomera Heliport","lat":28.0972,"lon":-17.1024,"elev":1},{"icao":"GCHG","name":"Insular Hospital Helipad","lat":28.082835,"lon":-15.417392,"elev":100},{"icao":"GCHI","name":"El Hierro Airport","lat":27.8148,"lon":-17.8871,"elev":103},{"icao":"GCHU","name":"Universitario de Canarias Hospital Heliport","lat":28.456101,"lon":-16.291888,"elev":1080},{"icao":"GCLA","name":"La Palma Airport","lat":28.626499,"lon":-17.7556,"elev":107},{"icao":"GCLB","name":"El Berriel Aeroc Airport","lat":27.782499,"lon":-15.5072,"elev":20},{"icao":"GCLG","name":"IES La Guancha Heliport","lat":28.377407,"lon":-16.649328,"elev":1439},{"icao":"GCLP","name":"Gran Canaria Airport","lat":27.9319,"lon":-15.3866,"elev":78},{"icao":"GCMP","name":"Maspalomas Station Heliport","lat":27.765637,"lon":-15.635286,"elev":471},{"icao":"GCPU","name":"Puntagorda Heliport","lat":28.77882,"lon":-17.9957,"elev":1440},{"icao":"GCRR","name":"César Manrique-Lanzarote Airport","lat":28.945499,"lon":-13.6052,"elev":46},{"icao":"GCTS","name":"Tenerife Sur Airport","lat":28.0445,"lon":-16.5725,"elev":209},{"icao":"GCXM","name":"Los Rodeos Army Heliport","lat":28.483836,"lon":-16.351263,"elev":2093},{"icao":"GCXO","name":"Tenerife Norte-Ciudad de La Laguna Airport","lat":28.4827,"lon":-16.341499,"elev":2076},{"icao":"GECE","name":"Ceuta Heliport","lat":35.892657,"lon":-5.306321,"elev":8},{"icao":"GECT","name":"Ceuta Military Heliport","lat":35.889018,"lon":-5.346354,"elev":267},{"icao":"GEHM","name":"Melilla Heliport","lat":35.3021,"lon":-2.94448,"elev":225},{"icao":"GEML","name":"Melilla Airport","lat":35.2798,"lon":-2.95626,"elev":156},{"icao":"GFBO","name":"Bo Airport","lat":7.9444,"lon":-11.761,"elev":328},{"icao":"GFGK","name":"Gbangbatok Airport","lat":7.812535,"lon":-12.377815,"elev":75},{"icao":"GFHA","name":"Hastings Airport","lat":8.394348,"lon":-13.128891,"elev":60},{"icao":"GFKB","name":"Kabala Airport","lat":9.638322913429999,"lon":-11.5155601501,"elev":1012},{"icao":"GFKE","name":"Kenema Airport","lat":7.896364,"lon":-11.174126,"elev":485},{"icao":"GFLL","name":"Lungi International Airport","lat":8.61644,"lon":-13.1955,"elev":84},{"icao":"GFYE","name":"Yengema Airport","lat":8.61047,"lon":-11.0454,"elev":1300},{"icao":"GGBU","name":"Bubaque Airport","lat":11.297356,"lon":-15.838079,"elev":null},{"icao":"GGCF","name":"Cufar Airport","lat":11.2879,"lon":-15.1805,"elev":65},{"icao":"GGOV","name":"Osvaldo Vieira International Airport","lat":11.894262,"lon":-15.653596,"elev":129},{"icao":"GLBU","name":"Buchanan Airport","lat":5.905503,"lon":-10.058262,"elev":41},{"icao":"GLCP","name":"Cape Palmas Airport","lat":4.3790202140808105,"lon":-7.6969499588012695,"elev":20},{"icao":"GLGE","name":"Greenville/Sinoe Airport","lat":5.032124,"lon":-9.064236,"elev":10},{"icao":"GLLB","name":"Lamco Airport","lat":5.856911,"lon":-10.021473,"elev":30},{"icao":"GLMR","name":"Spriggs Payne Airport","lat":6.28906,"lon":-10.7587,"elev":25},{"icao":"GLNA","name":"Nimba Airport","lat":7.494459,"lon":-8.584514,"elev":1632},{"icao":"GLRB","name":"Roberts International Airport","lat":6.23379,"lon":-10.3623,"elev":31},{"icao":"GLST","name":"Sasstown Airport","lat":4.681845,"lon":-8.434668,"elev":6},{"icao":"GLTN","name":"Tchien Airport","lat":6.04565,"lon":-8.138723,"elev":790},{"icao":"GLVA","name":"Voinjama Airport","lat":8.32347,"lon":-9.769249,"elev":1400},{"icao":"GMAA","name":"Inezgane Airport","lat":30.381399,"lon":-9.54631,"elev":89},{"icao":"GMAD","name":"Al Massira Airport","lat":30.322478,"lon":-9.412003,"elev":250},{"icao":"GMAG","name":"Guelmim Airport","lat":29.026699,"lon":-10.0503,"elev":984},{"icao":"GMAT","name":"Tan Tan Airport","lat":28.448200225830078,"lon":-11.161299705505371,"elev":653},{"icao":"GMAZ","name":"Zagora Airport","lat":30.265788,"lon":-5.860808,"elev":2414},{"icao":"GMFA","name":"Ouezzane Airport","lat":34.793361,"lon":-5.635986,"elev":571},{"icao":"GMFB","name":"Bouarfa Airport","lat":32.514306,"lon":-1.983056,"elev":3630},{"icao":"GMFF","name":"Fes Saïss International Airport","lat":33.927299,"lon":-4.97796,"elev":1900},{"icao":"GMFI","name":"Ifran Airport","lat":33.505299,"lon":-5.1529,"elev":5459},{"icao":"GMFK","name":"Moulay Ali Cherif Airport","lat":31.9475002289,"lon":-4.39833021164,"elev":3428},{"icao":"GMFM","name":"Bassatine Airport","lat":33.879101,"lon":-5.51512,"elev":1890},{"icao":"GMFO","name":"Oujda Angads Airport","lat":34.789558,"lon":-1.926041,"elev":1535},{"icao":"GMFZ","name":"Taza Airport","lat":34.231887,"lon":-3.94701,"elev":1890},{"icao":"GMMA","name":"Smara Airport","lat":26.731987,"lon":-11.683655,"elev":350},{"icao":"GMMB","name":"Ben Slimane Airport","lat":33.655399,"lon":-7.22145,"elev":627},{"icao":"GMMD","name":"Beni Mellal Airport","lat":32.401895,"lon":-6.315905,"elev":1694},{"icao":"GMME","name":"Rabat-Salé Airport","lat":34.051498,"lon":-6.75152,"elev":276},{"icao":"GMMH","name":"Dakhla Airport","lat":23.7183,"lon":-15.932,"elev":36},{"icao":"GMMI","name":"Essaouira-Mogador Airport","lat":31.397499,"lon":-9.68167,"elev":384},{"icao":"GMML","name":"Laayoune Hassan I International Airport","lat":27.142467,"lon":-13.224947,"elev":207},{"icao":"GMMN","name":"Mohammed V International Airport","lat":33.3675,"lon":-7.58997,"elev":656},{"icao":"GMMO","name":"Taroudant Airport","lat":30.503487,"lon":-8.821549,"elev":869},{"icao":"GMMW","name":"Nador Al Aaroui International Airport","lat":34.9888,"lon":-3.02821,"elev":574},{"icao":"GMMX","name":"Marrakesh Menara Airport","lat":31.604807,"lon":-8.035788,"elev":1545},{"icao":"GMMZ","name":"Ouarzazate International Airport","lat":30.9391,"lon":-6.90943,"elev":3782},{"icao":"GMSL","name":"Sidi Slimane Airport","lat":34.230598,"lon":-6.05014,"elev":179},{"icao":"GMTA","name":"Cherif Al Idrissi Airport","lat":35.177101,"lon":-3.83952,"elev":95},{"icao":"GMTN","name":"Sania Ramel Airport","lat":35.594299,"lon":-5.32002,"elev":10},{"icao":"GMTT","name":"Tangier Ibn Battuta Airport","lat":35.731741,"lon":-5.921459,"elev":62},{"icao":"GOBD","name":"Blaise Diagne International Airport","lat":14.670878,"lon":-17.072829,"elev":290},{"icao":"GODK","name":"Kolda Airport","lat":12.898604,"lon":-14.968322,"elev":121},{"icao":"GOGG","name":"Ziguinchor Airport","lat":12.55559,"lon":-16.283298,"elev":75},{"icao":"GOGS","name":"Cap Skirring Airport","lat":12.39533,"lon":-16.748,"elev":52},{"icao":"GOOG","name":"Linguère Airport","lat":15.402134,"lon":-15.080629,"elev":66},{"icao":"GOOK","name":"Kaolack Airport","lat":14.146900177001953,"lon":-16.051300048828125,"elev":26},{"icao":"GOOY","name":"Léopold Sédar Senghor International Airport","lat":14.742337,"lon":-17.479222,"elev":85},{"icao":"GOSM","name":"Ouro Sogui Airport","lat":15.5936,"lon":-13.3228,"elev":85},{"icao":"GOSP","name":"Podor Airport","lat":16.678155,"lon":-14.964957,"elev":20},{"icao":"GOSR","name":"Richard Toll Airport","lat":16.437816,"lon":-15.656376,"elev":20},{"icao":"GOSS","name":"Saint Louis Airport","lat":16.049814,"lon":-16.461039,"elev":9},{"icao":"GOTB","name":"Bakel Airport","lat":14.847299575805664,"lon":-12.468299865722656,"elev":98},{"icao":"GOTK","name":"Kédougou Airport","lat":12.57229995727539,"lon":-12.22029972076416,"elev":584},{"icao":"GOTS","name":"Simenti Airport","lat":13.046799659729004,"lon":-13.29539966583252,"elev":171},{"icao":"GOTT","name":"Tambacounda Airport","lat":13.7368,"lon":-13.6531,"elev":161},{"icao":"GQNA","name":"Aioun el Atrouss Airport","lat":16.711299896240234,"lon":-9.637880325317383,"elev":951},{"icao":"GQNB","name":"Boutilimit Airport","lat":17.52832,"lon":-14.71412,"elev":121},{"icao":"GQNC","name":"Tichitt Airport","lat":18.433942,"lon":-9.486411,"elev":561},{"icao":"GQND","name":"Tidjikja Airport","lat":18.570101,"lon":-11.4235,"elev":1342},{"icao":"GQNE","name":"Abbaye Airport","lat":16.63331413269043,"lon":-14.200000762939453,"elev":66},{"icao":"GQNF","name":"Kiffa Airport","lat":16.59,"lon":-11.4062,"elev":430},{"icao":"GQNH","name":"Timbedra Airport","lat":16.233671,"lon":-8.163464,"elev":692},{"icao":"GQNI","name":"Néma Airport","lat":16.622,"lon":-7.3166,"elev":745},{"icao":"GQNJ","name":"Akjoujt Airport","lat":19.727998,"lon":-14.377214,"elev":403},{"icao":"GQNK","name":"Kaédi Airport","lat":16.1595,"lon":-13.5076,"elev":75},{"icao":"GQNL","name":"Letfotar Airport","lat":17.75,"lon":-12.5,"elev":256},{"icao":"GQNM","name":"Dahara Airport","lat":16.299999,"lon":-8.05,"elev":722},{"icao":"GQNO","name":"Nouakchott–Oumtounsy International Airport","lat":18.31,"lon":-15.969722,"elev":9},{"icao":"GQNS","name":"Sélibaby Airport","lat":15.179699897766113,"lon":-12.207300186157227,"elev":219},{"icao":"GQNT","name":"Tamchakett Airport","lat":17.23157,"lon":-10.77923,"elev":620},{"icao":"GQPA","name":"Atar International Airport","lat":20.505823,"lon":-13.043744,"elev":734},{"icao":"GQPF","name":"Fderik Airport","lat":22.673551,"lon":-12.729262,"elev":961},{"icao":"GQPP","name":"Nouadhibou International Airport","lat":20.932404,"lon":-17.030199,"elev":24},{"icao":"GQPT","name":"Bir Moghrein Airport","lat":25.183531,"lon":-11.609001,"elev":1148},{"icao":"GQPZ","name":"Tazadit Airport","lat":22.757345,"lon":-12.482228,"elev":1119},{"icao":"GUBE","name":"Beyla Airport","lat":8.697222,"lon":-8.713889,"elev":2190},{"icao":"GUCY","name":"Conakry International Airport","lat":9.57689,"lon":-13.612,"elev":72},{"icao":"GUFA","name":"Fria Airport","lat":10.3506,"lon":-13.5692,"elev":499},{"icao":"GUFH","name":"Faranah Airport","lat":10.0354995728,"lon":-10.7698001862,"elev":1476},{"icao":"GUGO","name":"Gbenko Airport","lat":9.24284,"lon":-9.29997,"elev":2133},{"icao":"GUKR","name":"Kawass Airport","lat":10.657484,"lon":-14.532337,"elev":36},{"icao":"GUKU","name":"Kissidougou Airport","lat":9.1605596542358,"lon":-10.124400138855,"elev":1808},{"icao":"GULB","name":"Tata Airport","lat":11.337512,"lon":-12.290869,"elev":3396},{"icao":"GUMA","name":"Macenta Airport","lat":8.481456,"lon":-9.526048,"elev":1690},{"icao":"GUNZ","name":"Nzérékoré Airport","lat":7.810413,"lon":-8.702073,"elev":1657},{"icao":"GUOK","name":"Boké Baralande Airport","lat":10.9658,"lon":-14.2811,"elev":164},{"icao":"GUSA","name":"Sangarédi Airport","lat":11.114558,"lon":-13.815834,"elev":686},{"icao":"GUSB","name":"Sambailo Airport","lat":12.575315,"lon":-13.363349,"elev":295},{"icao":"GUSI","name":"Siguiri Airport","lat":11.399833,"lon":-9.18841,"elev":1296},{"icao":"GVAC","name":"Amílcar Cabral International Airport","lat":16.7414,"lon":-22.9494,"elev":177},{"icao":"GVAN","name":"Agostinho Neto Airport","lat":17.202800750732422,"lon":-25.090599060058594,"elev":32},{"icao":"GVBA","name":"Aristides Pereira International Airport","lat":16.136499,"lon":-22.888901,"elev":69},{"icao":"GVMA","name":"Maio Airport","lat":15.155900001525879,"lon":-23.213699340820312,"elev":36},{"icao":"GVMT","name":"Mosteiros Airport","lat":15.045,"lon":-24.339199,"elev":66},{"icao":"GVNP","name":"Nelson Mandela International Airport","lat":14.941126,"lon":-23.484728,"elev":230},{"icao":"GVSF","name":"São Filipe Airport","lat":14.8850002289,"lon":-24.4799995422,"elev":617},{"icao":"GVSN","name":"Preguiça Airport","lat":16.588852,"lon":-24.284132,"elev":669},{"icao":"GVSV","name":"Cesaria Evora International Airport","lat":16.833363,"lon":-25.055308,"elev":66},{"icao":"GXUD","name":"Kankan Airport","lat":10.448438,"lon":-9.228757,"elev":1234}]