[{"icao":"HAAB","name":"Addis Ababa Bole International Airport","lat":8.97789,"lon":38.799301,"elev":7630},{"icao":"HAAD","name":"Adaba Airport","lat":7.022953,"lon":39.273162,"elev":7896},{"icao":"HAAL","name":"Lideta Army Airport","lat":9.003685,"lon":38.725498,"elev":7749},{"icao":"HAAM","name":"Arba Minch Airport","lat":6.03939,"lon":37.5905,"elev":3901},{"icao":"HAAX","name":"Axum Airport","lat":14.1468,"lon":38.7728,"elev":6959},{"icao":"HABC","name":"Baco Airport","lat":5.783333,"lon":36.55,"elev":4300},{"icao":"HABD","name":"Bahir Dar Airport","lat":11.6081,"lon":37.321602,"elev":5978},{"icao":"HABE","name":"Beica Airport","lat":9.38639,"lon":34.5219,"elev":5410},{"icao":"HADC","name":"Kombolcha Airport","lat":11.10975,"lon":39.725911,"elev":6120},{"icao":"HADD","name":"Dembidollo Airport","lat":8.554,"lon":34.858002,"elev":5200},{"icao":"HADM","name":"Debre Markos Airport","lat":10.321501,"lon":37.741887,"elev":8136},{"icao":"HADO","name":"Dodola Airport","lat":7.02056,"lon":39.051102,"elev":8234},{"icao":"HADR","name":"Aba Tenna Dejazmach Yilma International Airport","lat":9.623549,"lon":41.855027,"elev":3827},{"icao":"HADT","name":"Debre Tabor Airport","lat":11.884808,"lon":38.009241,"elev":8490},{"icao":"HAFN","name":"Fincha Airport","lat":9.584387,"lon":37.377855,"elev":7600},{"icao":"HAGB","name":"Robe Airport","lat":7.119033,"lon":40.045166,"elev":7892},{"icao":"HAGH","name":"Ghinnir Airport","lat":7.15000009537,"lon":40.716999054,"elev":6499},{"icao":"HAGM","name":"Gambela Airport","lat":8.12876,"lon":34.563099,"elev":1614},{"icao":"HAGN","name":"Gondar Airport","lat":12.5199,"lon":37.433998,"elev":6449},{"icao":"HAGO","name":"Gode Airport","lat":5.93513011932,"lon":43.5786018372,"elev":834},{"icao":"HAGR","name":"Gore Airport","lat":8.1614,"lon":35.5529,"elev":6580},{"icao":"HAHM","name":"Harar Meda Airport","lat":8.7163,"lon":39.0059,"elev":6201},{"icao":"HAHU","name":"Humera Airport","lat":13.83012,"lon":36.88237,"elev":1930},{"icao":"HAJJ","name":"Gerad Wilwal International Airport","lat":9.331907,"lon":42.911811,"elev":5954},{"icao":"HAJM","name":"Jimma Airport","lat":7.66609001159668,"lon":36.81660079956055,"elev":5500},{"icao":"HAKD","name":"Kebri Dahar Airport","lat":6.732577,"lon":44.241339,"elev":1800},{"icao":"HAKL","name":"Kelafo East Airport","lat":5.6570000648498535,"lon":44.349998474121094,"elev":1730},{"icao":"HALA","name":"Hawassa International Airport","lat":7.100611,"lon":38.396455,"elev":5450},{"icao":"HALL","name":"Lalibela Airport","lat":11.975225,"lon":38.980198,"elev":6506},{"icao":"HAMA","name":"Mekane Selam Airport","lat":10.7254,"lon":38.7415,"elev":8405},{"icao":"HAMJ","name":"Tume Airport","lat":5.833,"lon":35.533001,"elev":2500},{"icao":"HAMK","name":"Alula Aba Nega Airport","lat":13.4674,"lon":39.533501,"elev":7396},{"icao":"HAMM","name":"Metema Airport","lat":12.932999610899998,"lon":36.1669998169,"elev":2650},{"icao":"HAMN","name":"Mendi Airport","lat":9.767,"lon":35.099998,"elev":5500},{"icao":"HAMR","name":"Mui River Airport","lat":5.8646,"lon":35.7485,"elev":1834},{"icao":"HAMT","name":"Mizan Teferi Airport","lat":6.9571,"lon":35.5547,"elev":4396},{"icao":"HANG","name":"Negele Airport","lat":5.2897,"lon":39.7023,"elev":5230},{"icao":"HANJ","name":"Nejjo Airport","lat":9.55,"lon":35.466995,"elev":6150},{"icao":"HANK","name":"Nekemte Airport","lat":9.034333,"lon":36.613154,"elev":6500},{"icao":"HAPW","name":"Beles Airport","lat":11.3126,"lon":36.4164,"elev":3695},{"icao":"HASD","name":"Soddu Airport","lat":6.80281,"lon":37.68622,"elev":6400},{"icao":"HASK","name":"Shakiso Airport","lat":5.6923,"lon":38.9764,"elev":5815},{"icao":"HASL","name":"Shilavo Airport","lat":6.077545,"lon":44.763736,"elev":1296},{"icao":"HASM","name":"Semera Airport","lat":11.7875,"lon":40.9915,"elev":1390},{"icao":"HASO","name":"Asosa Airport","lat":10.018500328063965,"lon":34.586299896240234,"elev":5100},{"icao":"HATP","name":"Tippi Airport","lat":7.2024,"lon":35.415,"elev":1100},{"icao":"HAWR","name":"Warder Airport","lat":6.9724,"lon":45.3334,"elev":1850},{"icao":"HBBA","name":"Bujumbura Melchior Ndadaye International Airport","lat":-3.32402,"lon":29.318501,"elev":2582},{"icao":"HBBE","name":"Gitega Airport","lat":-3.417209,"lon":29.911308,"elev":5741},{"icao":"HBBK","name":"Gihohi Airport","lat":-4.0342,"lon":30.1318,"elev":4065},{"icao":"HBBO","name":"Kirundo Airport","lat":-2.544772,"lon":30.094575,"elev":4511},{"icao":"HCAD","name":"Adado Airport","lat":6.095802,"lon":46.6375,"elev":1001},{"icao":"HCBA","name":"Hafun Airstrip","lat":10.445,"lon":51.2466,"elev":35},{"icao":"HCBG","name":"Hafun Old Base Airstrip","lat":10.4154,"lon":51.3256,"elev":555},{"icao":"HCMA","name":"Alula Airport","lat":11.9582,"lon":50.748,"elev":6},{"icao":"HCMB","name":"Baidoa Airport","lat":3.10192,"lon":43.627137,"elev":1820},{"icao":"HCMC","name":"Candala Airport","lat":11.495627,"lon":49.909816,"elev":30},{"icao":"HCMD","name":"Baardheere Airport","lat":2.330195,"lon":42.311802,"elev":396},{"icao":"HCME","name":"Eil Airport","lat":8.104,"lon":49.82,"elev":879},{"icao":"HCMF","name":"Bosaso / Bender Qassim International Airport","lat":11.275235,"lon":49.139231,"elev":3},{"icao":"HCMG","name":"Gardo Airport","lat":9.545975,"lon":49.119148,"elev":2632},{"icao":"HCMH","name":"Egal International Airport","lat":9.514082,"lon":44.083469,"elev":4471},{"icao":"HCMI","name":"Berbera Airport","lat":10.385035,"lon":44.936723,"elev":30},{"icao":"HCMJ","name":"Lugh Ganane Airport","lat":3.8124,"lon":42.5459,"elev":507},{"icao":"HCMK","name":"Kismayo Airport","lat":-0.377353,"lon":42.459202,"elev":49},{"icao":"HCMM","name":"Aden Adde International Airport","lat":2.01444,"lon":45.304699,"elev":29},{"icao":"HCMN","name":"Beledweyne Airport","lat":4.766976,"lon":45.2388,"elev":559},{"icao":"HCMO","name":"Hobyo Airport","lat":5.358003,"lon":48.515281,"elev":65},{"icao":"HCMR","name":"Galcaio Airport","lat":6.78082990646,"lon":47.45470047,"elev":975},{"icao":"HCMS","name":"Iskushuban Airport","lat":10.313889,"lon":50.205556,"elev":1121},{"icao":"HCMU","name":"Erigavo Airport","lat":10.642050549,"lon":47.3879814148,"elev":5720},{"icao":"HCMV","name":"Burao Airport","lat":9.5275,"lon":45.5549,"elev":3400},{"icao":"HDAM","name":"Djibouti-Ambouli Airport","lat":11.5473,"lon":43.1595,"elev":49},{"icao":"HDAS","name":"Ali-Sabieh Airport","lat":11.146889,"lon":42.72,"elev":2313},{"icao":"HDCH","name":"Chabelley Airport","lat":11.5168,"lon":43.061401,"elev":279},{"icao":"HDDK","name":"Dikhil Airport","lat":11.097958,"lon":42.350556,"elev":1520},{"icao":"HDHE","name":"Herkale Airport","lat":12.4449,"lon":43.292575,"elev":38},{"icao":"HDMO","name":"Moucha Airport","lat":11.72975,"lon":43.209559,"elev":null},{"icao":"HDOB","name":"Obock Airport","lat":11.967000007629395,"lon":43.266998291015625,"elev":69},{"icao":"HDTJ","name":"Tadjoura Airport","lat":11.787037,"lon":42.917376,"elev":246},{"icao":"HEAL","name":"El Alamein International Airport","lat":30.924324,"lon":28.46161,"elev":154},{"icao":"HEAR","name":"El Arish International Airport","lat":31.055324,"lon":33.827964,"elev":118},{"icao":"HEAT","name":"Asyut International Airport","lat":27.045962,"lon":31.01276,"elev":748},{"icao":"HEAX","name":"Alexandria International Airport","lat":30.93249,"lon":29.696437,"elev":171},{"icao":"HEBL","name":"Abu Simbel Airport","lat":22.374402,"lon":31.609881,"elev":614},{"icao":"HEBR","name":"Berenice International Airport / Banas Cape Air Base","lat":23.980437,"lon":35.460277,"elev":108},{"icao":"HECA","name":"Cairo International Airport","lat":30.111534,"lon":31.396694,"elev":322},{"icao":"HECW","name":"Cairo West Air Base","lat":30.116431,"lon":30.915535,"elev":557},{"icao":"HEDK","name":"Ad Dakhla Airport","lat":25.41116,"lon":29.003273,"elev":551},{"icao":"HEGN","name":"Hurghada International Airport","lat":27.176776,"lon":33.796692,"elev":32},{"icao":"HEGO","name":"El Gouna Private Airport","lat":27.365594,"lon":33.668461,"elev":39},{"icao":"HEGR","name":"El Jora Airport","lat":31.078138,"lon":34.153131,"elev":331},{"icao":"HEKG","name":"El Kharja Airport","lat":25.471483,"lon":30.588491,"elev":194},{"icao":"HELX","name":"Luxor International Airport","lat":25.671018,"lon":32.706446,"elev":276},{"icao":"HEMA","name":"Marsa Alam International Airport","lat":25.555548,"lon":34.59245,"elev":213},{"icao":"HEMM","name":"Mersa Matruh International Airport","lat":31.324313,"lon":27.22227,"elev":75},{"icao":"HEOC","name":"October Airport","lat":29.812707,"lon":30.823461,"elev":774},{"icao":"HEOW","name":"El Owainat East International Airport","lat":22.584256,"lon":28.721609,"elev":843},{"icao":"HEPS","name":"Port Said International Airport","lat":31.279285,"lon":32.240582,"elev":10},{"icao":"HESC","name":"Saint Catherine International Airport","lat":28.684292,"lon":34.064409,"elev":4402},{"icao":"HESG","name":"Sohag International Airport","lat":26.342515,"lon":31.743017,"elev":322},{"icao":"HESH","name":"Sharm El Sheikh International Airport","lat":27.977272,"lon":34.394717,"elev":191},{"icao":"HESN","name":"Aswan International Airport","lat":23.961075,"lon":32.820382,"elev":650},{"icao":"HESX","name":"Sphinx International Airport","lat":30.108179,"lon":30.895728,"elev":510},{"icao":"HETB","name":"Taba International Airport","lat":29.594496,"lon":34.775752,"elev":2425},{"icao":"HETR","name":"At Tur Airport","lat":28.208964,"lon":33.645483,"elev":52},{"icao":"HHAG","name":"Agordat Airport","lat":15.536313,"lon":37.865546,"elev":null},{"icao":"HHAS","name":"Asmara International Airport","lat":15.2919,"lon":38.910702,"elev":7661},{"icao":"HHMS","name":"Massawa International Airport","lat":15.67,"lon":39.370098,"elev":194},{"icao":"HHSB","name":"Assab International Airport","lat":13.0718,"lon":42.645,"elev":46},{"icao":"HHTS","name":"Tessenei Airport","lat":15.104322,"lon":36.681711,"elev":2018},{"icao":"HJJJ","name":"Juba International Airport","lat":4.87201,"lon":31.601101,"elev":1513},{"icao":"HKAM","name":"Amboseli Airport","lat":-2.645050048828125,"lon":37.25310134887695,"elev":3755},{"icao":"HKBR","name":"Bura East Airport","lat":-1.1,"lon":39.950001,"elev":345},{"icao":"HKEL","name":"Eldoret International Airport","lat":0.404458,"lon":35.238899,"elev":6941},{"icao":"HKEM","name":"Embu Airport","lat":-0.57327,"lon":37.49726,"elev":4150},{"icao":"HKES","name":"Eliye Springs Airport","lat":3.23635,"lon":35.97664,"elev":1395},{"icao":"HKFG","name":"Kalokol Airport","lat":3.49161,"lon":35.836777,"elev":1245},{"icao":"HKGA","name":"Garissa Airport","lat":-0.463508,"lon":39.6483,"elev":475},{"icao":"HKGT","name":"Garba Tula Airport","lat":0.533333,"lon":38.516667,"elev":2000},{"icao":"HKHB","name":"Homa Bay Airport","lat":-0.587322,"lon":34.476467,"elev":4280},{"icao":"HKHO","name":"Hola Airport","lat":-1.522,"lon":40.004002,"elev":195},{"icao":"HKIS","name":"Isiolo Airport","lat":0.338171,"lon":37.591694,"elev":3495},{"icao":"HKJK","name":"Jomo Kenyatta International Airport","lat":-1.31923997402,"lon":36.9277992249,"elev":5330},{"icao":"HKKE","name":"Keekorok Airport","lat":-1.586345,"lon":35.257455,"elev":5800},{"icao":"HKKG","name":"Kakamega Airport","lat":0.271342009306,"lon":34.7873001099,"elev":5020},{"icao":"HKKI","name":"Kisumu International Airport","lat":-0.086139,"lon":34.728901,"elev":3734},{"icao":"HKKL","name":"Kilaguni Airport","lat":-2.91061,"lon":38.065201,"elev":2750},{"icao":"HKKM","name":"Kakuma Airport","lat":3.705094,"lon":34.871293,"elev":1906},{"icao":"HKKR","name":"Kericho Airport","lat":-0.3899,"lon":35.242093,"elev":6446},{"icao":"HKKS","name":"Kisii Airport","lat":-0.672514,"lon":34.690923,"elev":4905},{"icao":"HKKT","name":"Kitale Airport","lat":0.971989,"lon":34.958599,"elev":6070},{"icao":"HKLG","name":"Lokitaung Airport","lat":4.319205,"lon":35.688641,"elev":1805},{"icao":"HKLK","name":"Lokichogio Airport","lat":4.20412,"lon":34.348202,"elev":2074},{"icao":"HKLO","name":"Lodwar Airport","lat":3.12197,"lon":35.6087,"elev":1715},{"icao":"HKLU","name":"Manda Airport","lat":-2.252431,"lon":40.912892,"elev":20},{"icao":"HKLY","name":"Loyengalani Airport","lat":2.75,"lon":36.716999,"elev":1195},{"icao":"HKMA","name":"Mandera Airport","lat":3.934045,"lon":41.844437,"elev":805},{"icao":"HKMB","name":"Marsabit Airport","lat":2.344254,"lon":37.999996,"elev":4395},{"icao":"HKMI","name":"Maralal (Kisima) Airport","lat":0.95,"lon":36.799999,"elev":5940},{"icao":"HKMK","name":"Mulika Lodge Airport","lat":0.165083,"lon":38.195141,"elev":2230},{"icao":"HKML","name":"Malindi Airport","lat":-3.2293100357055664,"lon":40.10169982910156,"elev":80},{"icao":"HKMO","name":"Moi International Airport","lat":-4.03483,"lon":39.5942,"elev":200},{"icao":"HKMS","name":"Mara Serena Lodge Airstrip","lat":-1.406111,"lon":35.008057,"elev":5200},{"icao":"HKMU","name":"Makindu Airport","lat":-2.289713,"lon":37.828621,"elev":3513},{"icao":"HKMY","name":"Moyale Airport","lat":3.46972,"lon":39.101398,"elev":2790},{"icao":"HKNI","name":"Nyeri Airport","lat":-0.364414,"lon":36.978485,"elev":5830},{"icao":"HKNK","name":"Lanet Military Airstrip","lat":-0.298067,"lon":36.159302,"elev":6234},{"icao":"HKNL","name":"Nanyuki Airport","lat":-0.062399,"lon":37.041008,"elev":6250},{"icao":"HKNO","name":"Narok Airport","lat":-1.128103,"lon":35.785685,"elev":6311},{"icao":"HKNV","name":"Naivasha Airport","lat":-0.787953,"lon":36.433494,"elev":6380},{"icao":"HKNW","name":"Nairobi Wilson Airport","lat":-1.321720004081726,"lon":36.81480026245117,"elev":5536},{"icao":"HKNY","name":"Laikipia Air Base","lat":0.032933,"lon":37.026901,"elev":null},{"icao":"HKOL","name":"Oropoi Airport","lat":3.810904,"lon":34.360943,"elev":2842},{"icao":"HKRE","name":"Moi Air Base","lat":-1.27727,"lon":36.862301,"elev":5336},{"icao":"HKSB","name":"Samburu Airport","lat":0.534069,"lon":37.531991,"elev":3295},{"icao":"HKUK","name":"Ukunda Airstrip","lat":-4.29333,"lon":39.571098,"elev":98},{"icao":"HKVO","name":"Voi Airport","lat":-3.374539,"lon":38.534748,"elev":1900},{"icao":"HKWJ","name":"Wajir Airport","lat":1.73324,"lon":40.091599,"elev":770},{"icao":"HLGD","name":"Sirt International Airport / Ghardabiya Airbase","lat":31.058578,"lon":16.597095,"elev":267},{"icao":"HLGT","name":"Ghat Airport","lat":25.1455993652,"lon":10.142600059500001,"elev":2296},{"icao":"HLJF","name":"Al Jufra Airport","lat":29.198099,"lon":16.000999,"elev":846},{"icao":"HLKF","name":"Kufra Airport","lat":24.178699493408203,"lon":23.31399917602539,"elev":1367},{"icao":"HLLB","name":"Benina International Airport","lat":32.096802,"lon":20.269501,"elev":433},{"icao":"HLLM","name":"Mitiga International Airport","lat":32.89177,"lon":13.287878,"elev":36},{"icao":"HLLQ","name":"Al Abraq International Airport","lat":32.789036,"lon":21.954864,"elev":2157},{"icao":"HLLS","name":"Sabha Airport","lat":26.992452,"lon":14.466162,"elev":1427},{"icao":"HLMB","name":"Marsa al Brega Airport","lat":30.378099,"lon":19.576401,"elev":50},{"icao":"HLMS","name":"Misrata International Airport","lat":32.325001,"lon":15.061,"elev":60},{"icao":"HLNF","name":"Ras Lanuf Airport","lat":30.5,"lon":18.527201,"elev":42},{"icao":"HLNR","name":"Nafurah 1 Airport","lat":29.2132,"lon":21.5924,"elev":125},{"icao":"HLON","name":"Hon Airport","lat":29.1101,"lon":15.9656,"elev":919},{"icao":"HLTD","name":"Ghadames East Airport","lat":30.151699,"lon":9.71531,"elev":1122},{"icao":"HLUB","name":"Ubari Airport","lat":26.567499,"lon":12.8231,"elev":1528},{"icao":"HLWN","name":"Waddan Airport","lat":29.1392,"lon":16.160299,"elev":910},{"icao":"HLZN","name":"Alzintan Airport","lat":31.774878,"lon":12.25006,"elev":2080},{"icao":"HLZW","name":"Zuwarah International Airport","lat":32.952301,"lon":12.0155,"elev":9},{"icao":"HRYG","name":"Gisenyi Airport","lat":-1.6771999597549438,"lon":29.258899688720703,"elev":5082},{"icao":"HRYI","name":"Butare Airport","lat":-2.59583,"lon":29.7367,"elev":5801},{"icao":"HRYN","name":"Nemba Airport","lat":-2.336167,"lon":30.206658,"elev":4905},{"icao":"HRYR","name":"Kigali International Airport","lat":-1.96863,"lon":30.1395,"elev":4859},{"icao":"HRYU","name":"Ruhengeri Airport","lat":-1.496873,"lon":29.631343,"elev":6102},{"icao":"HRZA","name":"Kamembe Airport","lat":-2.462239980697632,"lon":28.907899856567383,"elev":5192},{"icao":"HSAT","name":"Atbara Airport","lat":17.710344,"lon":34.057018,"elev":1181},{"icao":"HSCG","name":"Carthago Airport","lat":18.751389,"lon":36.991667,"elev":3230},{"icao":"HSDB","name":"Al Dabbah Airport","lat":18.0146,"lon":30.9595,"elev":843},{"icao":"HSDL","name":"Dilling Airport","lat":11.9906,"lon":29.673201,"elev":2206},{"icao":"HSDN","name":"Dongola Airport","lat":19.153900146499996,"lon":30.430099487299998,"elev":772},{"icao":"HSDZ","name":"Damazin Airport","lat":11.7859,"lon":34.3367,"elev":1582},{"icao":"HSFS","name":"El Fasher Airport","lat":13.614899635314941,"lon":25.324600219726562,"elev":2393},{"icao":"HSGG","name":"Galegu Airport","lat":12.532999992370605,"lon":35.06700134277344,"elev":1640},{"icao":"HSGN","name":"Geneina Airport","lat":13.481882,"lon":22.467119,"elev":2651},{"icao":"HSHG","name":"Heglig Airport","lat":9.994933,"lon":29.397718,"elev":1325},{"icao":"HSKA","name":"Kassala Airport","lat":15.387499809265137,"lon":36.328800201416016,"elev":1671},{"icao":"HSKG","name":"Khashm El Girba Airport","lat":14.925,"lon":35.877998,"elev":1560},{"icao":"HSKN","name":"Kenana Airport","lat":13.05343,"lon":32.90732,"elev":1291},{"icao":"HSLI","name":"Kadugli Airport","lat":11.137999534600002,"lon":29.7010993958,"elev":1848},{"icao":"HSMN","name":"Merowe Airport","lat":18.443333,"lon":31.843333,"elev":897},{"icao":"HSMR","name":"Merowe Town Airport","lat":18.455,"lon":31.8185,"elev":864},{"icao":"HSND","name":"Shendi Airport","lat":16.703775,"lon":33.446395,"elev":1181},{"icao":"HSNH","name":"En Nahud Airport","lat":12.735513,"lon":28.410841,"elev":1955},{"icao":"HSNN","name":"Nyala Airport","lat":12.0535,"lon":24.9562,"elev":2106},{"icao":"HSNW","name":"New Halfa Airport","lat":15.3556,"lon":35.727798,"elev":1480},{"icao":"HSOB","name":"El-Obeid Airport","lat":13.1532,"lon":30.2327,"elev":1927},{"icao":"HSPN","name":"Port Sudan New International Airport","lat":19.434558,"lon":37.234125,"elev":135},{"icao":"HSRJ","name":"Raga Airport","lat":8.46111,"lon":25.681101,"elev":1788},{"icao":"HSRN","name":"Renk Airport","lat":11.644773,"lon":32.81045,"elev":1278},{"icao":"HSSK","name":"Khartoum International Airport","lat":15.5895,"lon":32.5532,"elev":1265},{"icao":"HSSP","name":"Port Sudan Air Base","lat":19.5765,"lon":37.2159,"elev":10},{"icao":"HSSW","name":"Wadi Halfa Airport","lat":21.802698,"lon":31.521578,"elev":933},{"icao":"HSTO","name":"Tong Airport","lat":7.267,"lon":28.983,"elev":1413},{"icao":"HSZA","name":"Zalingei Airport","lat":12.9437,"lon":23.5631,"elev":2953},{"icao":"HTAR","name":"Arusha Airport","lat":-3.3677899837493896,"lon":36.63330078125,"elev":4550},{"icao":"HTBU","name":"Bukoba Airport","lat":-1.332,"lon":31.8212,"elev":3784},{"icao":"HTDA","name":"Julius Nyerere International Airport","lat":-6.87811,"lon":39.202599,"elev":182},{"icao":"HTDO","name":"Dodoma Airport","lat":-6.17044,"lon":35.752602,"elev":3673},{"icao":"HTGE","name":"Chato/Geita Airport","lat":-2.74233,"lon":31.70683,"elev":3898},{"icao":"HTGR","name":"Kirawira B Aerodrome","lat":-2.160833,"lon":34.225556,"elev":3970},{"icao":"HTGW","name":"Songwe Airport","lat":-8.919942,"lon":33.273981,"elev":4412},{"icao":"HTIR","name":"Iringa Airport","lat":-7.66863,"lon":35.752102,"elev":4678},{"icao":"HTKA","name":"Kigoma Airport","lat":-4.8862,"lon":29.6709,"elev":2700},{"icao":"HTKI","name":"Kilwa Airport","lat":-8.91123,"lon":39.508619,"elev":50},{"icao":"HTKJ","name":"Kilimanjaro International Airport","lat":-3.42941,"lon":37.074501,"elev":2932},{"icao":"HTLI","name":"Lindi Airport","lat":-9.851005,"lon":39.75911,"elev":100},{"icao":"HTLM","name":"Lake Manyara Airport","lat":-3.37631,"lon":35.818298,"elev":4150},{"icao":"HTMA","name":"Mafia Airport","lat":-7.917478,"lon":39.668502,"elev":60},{"icao":"HTMB","name":"Mbeya Airport","lat":-8.919444,"lon":33.463889,"elev":5600},{"icao":"HTMD","name":"Mwadui Airport","lat":-3.521332,"lon":33.615542,"elev":3970},{"icao":"HTMI","name":"Masasi Airport","lat":-10.733,"lon":38.766998,"elev":1700},{"icao":"HTMP","name":"Mpanda Airport","lat":-6.355374,"lon":31.084116,"elev":3520},{"icao":"HTMS","name":"Moshi Airport","lat":-3.36333,"lon":37.3269,"elev":2801},{"icao":"HTMT","name":"Mtwara Airport","lat":-10.336204,"lon":40.181997,"elev":371},{"icao":"HTMU","name":"Musoma Airport","lat":-1.503,"lon":33.8021,"elev":3806},{"icao":"HTMW","name":"Mwanza Airport","lat":-2.4444899559020996,"lon":32.932701110839844,"elev":3763},{"icao":"HTNA","name":"Nachingwea Airport","lat":-10.3575,"lon":38.779202,"elev":1400},{"icao":"HTNJ","name":"Njombe Airport","lat":-9.35,"lon":34.799999,"elev":6400},{"icao":"HTNR","name":"Ngara Airport","lat":-2.54179,"lon":30.7031,"elev":5030},{"icao":"HTPE","name":"Pemba Airport","lat":-5.25726,"lon":39.811401,"elev":80},{"icao":"HTSN","name":"Seronera Airport","lat":-2.45806,"lon":34.822498,"elev":5080},{"icao":"HTSO","name":"Songea Airport","lat":-10.683,"lon":35.583,"elev":3445},{"icao":"HTSU","name":"Sumbawanga Airport","lat":-7.948889,"lon":31.610278,"elev":5960},{"icao":"HTSY","name":"Shinyanga Airport","lat":-3.6093,"lon":33.5035,"elev":3800},{"icao":"HTTB","name":"Tabora Airport","lat":-5.07639,"lon":32.833302,"elev":3868},{"icao":"HTTG","name":"Tanga Airport","lat":-5.09236,"lon":39.071201,"elev":129},{"icao":"HTZA","name":"Abeid Amani Karume International Airport","lat":-6.22202,"lon":39.224899,"elev":54},{"icao":"HUAJ","name":"Adjumani Airport","lat":3.339239,"lon":31.763854,"elev":2611},{"icao":"HUAR","name":"Arua Airport","lat":3.049152,"lon":30.911714,"elev":3951},{"icao":"HUBU","name":"Bundibugyo Airport","lat":0.67349,"lon":30.025483,"elev":3100},{"icao":"HUEN","name":"Entebbe International Airport","lat":0.042386,"lon":32.443501,"elev":3782},{"icao":"HUGG","name":"Bugungu Airport","lat":2.202788,"lon":31.554341,"elev":2472},{"icao":"HUGU","name":"Gulu Airport","lat":2.8055601119995117,"lon":32.27180099487305,"elev":3510},{"icao":"HUJI","name":"Jinja Airport","lat":0.453094,"lon":33.19356,"elev":3855},{"icao":"HUKS","name":"Kasese Airport","lat":0.183,"lon":30.1,"elev":3146},{"icao":"HUMA","name":"Mbarara Airport","lat":-0.555278,"lon":30.5994,"elev":4600},{"icao":"HUMI","name":"Masindi Airport","lat":1.75806,"lon":31.7367,"elev":3850},{"icao":"HUPA","name":"Kabalega Falls Airport","lat":2.326563,"lon":31.497698,"elev":2365},{"icao":"HUSO","name":"Soroti Airport","lat":1.7276899814605713,"lon":33.622798919677734,"elev":3697},{"icao":"HUTO","name":"Tororo Airport","lat":0.683,"lon":34.167,"elev":3840}]