[{"icao":"OAAK","name":"Andkhoy Airport","lat":36.942659,"lon":65.206746,"elev":900},{"icao":"OABN","name":"Bamyan Airport","lat":34.808916,"lon":67.816629,"elev":8367},{"icao":"OABT","name":"Bost Airport","lat":31.5597,"lon":64.364998,"elev":2464},{"icao":"OACC","name":"Chaghcharan Airport","lat":34.526465,"lon":65.27102,"elev":7383},{"icao":"OADS","name":"Sardeh Band Airport","lat":33.3207015991,"lon":68.6364974976,"elev":6971},{"icao":"OADY","name":"Dwyer Airport","lat":31.091265,"lon":64.066053,"elev":2380},{"icao":"OADZ","name":"Darwaz Airport","lat":38.461798,"lon":70.881606,"elev":5250},{"icao":"OAEM","name":"Ishkashim Airport","lat":36.71272,"lon":71.61261,"elev":8420},{"icao":"OAFR","name":"Farah Airport","lat":32.366667,"lon":62.165347,"elev":3083},{"icao":"OAFZ","name":"Fayzabad Airport","lat":37.122148,"lon":70.5201,"elev":3872},{"icao":"OAGN","name":"Ghazni Airport","lat":33.487853,"lon":68.525243,"elev":null},{"icao":"OAGZ","name":"Gardez Airport","lat":33.627366,"lon":69.237023,"elev":7790},{"icao":"OAHN","name":"Khwahan Airport","lat":37.890021,"lon":70.20383,"elev":3593},{"icao":"OAHR","name":"Herat - Khwaja Abdullah Ansari International Airport","lat":34.209999,"lon":62.228298,"elev":3206},{"icao":"OAIX","name":"Bagram Airfield","lat":34.946098,"lon":69.264999,"elev":4895},{"icao":"OAJL","name":"Jalalabad Airport","lat":34.399799,"lon":70.498596,"elev":1814},{"icao":"OAKB","name":"Kabul International Airport","lat":34.565899,"lon":69.212303,"elev":5877},{"icao":"OAKN","name":"Ahmad Shah Baba International Airport / Kandahar Airfield","lat":31.5058,"lon":65.847801,"elev":3337},{"icao":"OAKS","name":"Khost International Airport","lat":33.284605,"lon":69.80734,"elev":4204},{"icao":"OALG","name":"Logar Airport","lat":33.9865,"lon":69.023102,"elev":6333},{"icao":"OAMK","name":"Muqur Airport","lat":32.879601,"lon":67.848602,"elev":6600},{"icao":"OAMN","name":"Maymana Zahiraddin Faryabi Airport","lat":35.930801,"lon":64.760902,"elev":2743},{"icao":"OAMS","name":"Mazar-i-Sharif International Airport","lat":36.70412,"lon":67.210459,"elev":1284},{"icao":"OANL","name":"Nili Airport","lat":33.739456,"lon":66.157408,"elev":null},{"icao":"OANZ","name":"Nimroz Airport","lat":30.963333,"lon":62.060833,"elev":1581},{"icao":"OAOG","name":"Urgun Airport","lat":32.939933,"lon":69.150064,"elev":7300},{"icao":"OAPJ","name":"Panjab Airport","lat":34.391726,"lon":67.020445,"elev":8800},{"icao":"OAQA","name":"Qalat Airport","lat":32.133839,"lon":66.898917,"elev":5383},{"icao":"OAQN","name":"Qala-i-Naw Airport","lat":34.985472,"lon":63.117404,"elev":2999},{"icao":"OARG","name":"Orūzgān Airport","lat":32.9029998779,"lon":66.630897522,"elev":6725},{"icao":"OARZ","name":"Razer Airport","lat":36.029893,"lon":70.714159,"elev":null},{"icao":"OASA","name":"Sharana Airstrip","lat":33.12575,"lon":68.838517,"elev":7340},{"icao":"OASD","name":"Shindand Air Base","lat":33.3913,"lon":62.261002,"elev":3773},{"icao":"OASG","name":"Sheberghan Airport","lat":36.751076,"lon":65.913038,"elev":1053},{"icao":"OASH","name":"Shank Air Base","lat":33.922217,"lon":69.07794,"elev":6890},{"icao":"OASL","name":"Salerno Airport","lat":33.3638,"lon":69.9561,"elev":3780},{"icao":"OASN","name":"Sheghnan Airport","lat":37.497642,"lon":71.508484,"elev":6700},{"icao":"OATD","name":"Toorghodi Heliport","lat":35.222198,"lon":62.2906,"elev":2600},{"icao":"OATN","name":"Tarinkot Airport","lat":32.604198,"lon":65.865799,"elev":4429},{"icao":"OATQ","name":"Taleqan Airport","lat":36.770699,"lon":69.531998,"elev":2606},{"icao":"OATW","name":"Taywarah Airport","lat":33.54309,"lon":64.42542,"elev":7370},{"icao":"OAUZ","name":"Kunduz Airport","lat":36.6651,"lon":68.910797,"elev":1457},{"icao":"OAYQ","name":"Yangi Qaleh Airport","lat":37.459,"lon":69.646599,"elev":1600},{"icao":"OAYW","name":"Yawan Airport","lat":37.563636,"lon":70.444496,"elev":5645},{"icao":"OAZI","name":"Camp Shorabak Airfield","lat":31.848735,"lon":64.223175,"elev":2943},{"icao":"OAZJ","name":"Zaranj Airport","lat":30.972222,"lon":61.865833,"elev":1572},{"icao":"OBBI","name":"Bahrain International Airport","lat":26.267295,"lon":50.63764,"elev":6},{"icao":"OBBS","name":"Sheik Isa Air Base","lat":25.9184,"lon":50.590599,"elev":136},{"icao":"OBKH","name":"Sakhir Air Base","lat":26.034533,"lon":50.524544,"elev":49},{"icao":"OEAA","name":"Abu Ali Airport","lat":27.319099,"lon":49.587101,"elev":69},{"icao":"OEAB","name":"Abha International Airport","lat":18.2404,"lon":42.656601,"elev":6858},{"icao":"OEAD","name":"Aradah Airport","lat":21.226999,"lon":55.2673,"elev":699},{"icao":"OEAH","name":"Al-Ahsa International Airport","lat":25.285299,"lon":49.485199,"elev":588},{"icao":"OEAO","name":"Majeed Bin Abdulaziz Airport","lat":26.483333,"lon":38.116944,"elev":2050},{"icao":"OEBA","name":"King Saud Bin Abdulaziz (Al Baha) Airport","lat":20.298506,"lon":41.636153,"elev":5486},{"icao":"OEBH","name":"Bisha Airport","lat":19.9844,"lon":42.620899,"elev":3887},{"icao":"OEBN","name":"Thablotin Airport","lat":19.831632,"lon":54.022115,"elev":403},{"icao":"OEBQ","name":"Abqaiq Airport","lat":25.911301,"lon":49.591202,"elev":229},{"icao":"OEBT","name":"Batha Airport","lat":24.214693,"lon":51.44989,"elev":257},{"icao":"OEDF","name":"King Fahd International Airport","lat":26.4691,"lon":49.798209,"elev":72},{"icao":"OEDM","name":"King Salman Abdulaziz Airport","lat":24.4499,"lon":44.121201,"elev":3026},{"icao":"OEDR","name":"King Abdulaziz Air Base","lat":26.2654,"lon":50.152,"elev":84},{"icao":"OEGN","name":"Jizan Regional Airport / King Abdullah bin Abdulaziz Airport","lat":16.9011,"lon":42.5858,"elev":20},{"icao":"OEGS","name":"Gassim Airport","lat":26.302799,"lon":43.774399,"elev":2126},{"icao":"OEGT","name":"Gurayat Domestic Airport","lat":31.412413,"lon":37.278898,"elev":1672},{"icao":"OEHL","name":"Ha'il Airport","lat":27.437901,"lon":41.686298,"elev":3331},{"icao":"OEHR","name":"Haradh Airport","lat":24.09653,"lon":49.22432,"elev":110},{"icao":"OEHW","name":"Hawtah Airport","lat":22.9678,"lon":46.899502,"elev":2091},{"icao":"OEJF","name":"King Faisal Naval Base","lat":21.348101,"lon":39.173,"elev":7},{"icao":"OEJL","name":"King Abdulaziz Naval Base","lat":26.941601,"lon":49.704102,"elev":10},{"icao":"OEJN","name":"King Abdulaziz International Airport","lat":21.6796,"lon":39.156502,"elev":48},{"icao":"OEKJ","name":"Al Kharj Airport","lat":24.060722,"lon":47.410805,"elev":1500},{"icao":"OEKK","name":"King Khaled Military City Airport","lat":27.9009,"lon":45.528198,"elev":1352},{"icao":"OEKM","name":"King Khalid Air Base","lat":18.2973,"lon":42.803501,"elev":6778},{"icao":"OEKN","name":"Khurais Airport","lat":25.26533,"lon":48.178333,"elev":null},{"icao":"OEMA","name":"Prince Mohammad Bin Abdulaziz Airport","lat":24.5534,"lon":39.705101,"elev":2151},{"icao":"OENG","name":"Najran Domestic Airport","lat":17.611401,"lon":44.419201,"elev":3982},{"icao":"OENN","name":"Neom Bay Airport","lat":27.927598,"lon":35.28874,"elev":29},{"icao":"OEOM","name":"Umm Al Melh Border Guards Airport","lat":19.11176,"lon":50.127353,"elev":860},{"icao":"OEPA","name":"Al Qaisumah/Hafr Al Batin Airport","lat":28.335199,"lon":46.125099,"elev":1174},{"icao":"OEPC","name":"Pump Station 3 Airport","lat":25.1745,"lon":47.4884,"elev":1740},{"icao":"OEPF","name":"Pump Station 6 Airport","lat":24.7103,"lon":44.9645,"elev":2530},{"icao":"OEPI","name":"Pump Station 9 Airport","lat":24.2761,"lon":42.1437,"elev":3000},{"icao":"OEPJ","name":"Pump Station 10 Airport","lat":24.1073,"lon":41.035999,"elev":2840},{"icao":"OEPK","name":"IPSA 3 Airport","lat":27.954201,"lon":46.742599,"elev":1000},{"icao":"OEPS","name":"Prince Sultan Air Base","lat":24.0627,"lon":47.580502,"elev":1651},{"icao":"OERB","name":"Rabigh Airport","lat":22.7026,"lon":39.069801,"elev":22},{"icao":"OERF","name":"Rafha Domestic Airport","lat":29.626399993896484,"lon":43.4906005859375,"elev":1474},{"icao":"OERK","name":"King Khalid International Airport","lat":24.9576,"lon":46.698799,"elev":2049},{"icao":"OERM","name":"Ras Mishab Airport","lat":28.079599,"lon":48.611,"elev":13},{"icao":"OERR","name":"Arar Domestic Airport","lat":30.906600952148438,"lon":41.13819885253906,"elev":1813},{"icao":"OERT","name":"Ras Tanura Airport","lat":26.723101,"lon":50.0308,"elev":6},{"icao":"OESB","name":"Shaibah Airport","lat":22.514781,"lon":53.964114,"elev":300},{"icao":"OESH","name":"Sharurah Domestic Airport","lat":17.4669,"lon":47.121399,"elev":2363},{"icao":"OESK","name":"Al-Jawf Domestic Airport","lat":29.78510093688965,"lon":40.099998474121094,"elev":2261},{"icao":"OESL","name":"As-Sulayyil Airport","lat":20.464701,"lon":45.619598,"elev":2021},{"icao":"OESN","name":"King Salman Air Base","lat":24.465259,"lon":46.659279,"elev":null},{"icao":"OEST","name":"Shubaytah Airport","lat":22.709952,"lon":53.281131,"elev":305},{"icao":"OETB","name":"Tabuk Airport","lat":28.3654,"lon":36.6189,"elev":2551},{"icao":"OETF","name":"Ta’if Regional Airport","lat":21.483001,"lon":40.543442,"elev":4848},{"icao":"OETH","name":"Thumamah Airport","lat":25.212979,"lon":46.640847,"elev":1870},{"icao":"OETN","name":"Ras Tanajib Airport","lat":27.8678,"lon":48.7691,"elev":30},{"icao":"OETR","name":"Turaif Domestic Airport","lat":31.692188,"lon":38.731544,"elev":2803},{"icao":"OEUD","name":"Udhailiyah Airport","lat":25.1511,"lon":49.3288,"elev":759},{"icao":"OEUM","name":"Ummlejj Airport","lat":25.285833,"lon":37.199167,"elev":95},{"icao":"OEWD","name":"Wadi Al Dawasir Domestic Airport","lat":20.504299,"lon":45.1996,"elev":2062},{"icao":"OEWJ","name":"Al Wajh Domestic Airport","lat":26.198601,"lon":36.476398,"elev":66},{"icao":"OEYN","name":"Prince Abdul Mohsin bin Abdulaziz International Airport / Yanbu Airport","lat":24.144199,"lon":38.0634,"elev":26},{"icao":"OEZL","name":"Zilfi Airport","lat":26.350000381469727,"lon":44.83300018310547,"elev":1900},{"icao":"OIAA","name":"Abadan Airport","lat":30.367887,"lon":48.230075,"elev":10},{"icao":"OIAD","name":"Dezful Airport","lat":32.434399,"lon":48.397598,"elev":474},{"icao":"OIAG","name":"Aghajari Airport","lat":30.7444,"lon":49.6772,"elev":88},{"icao":"OIAH","name":"Gachsaran Airport","lat":30.333869,"lon":50.833796,"elev":2414},{"icao":"OIAJ","name":"Omidiyeh Airport","lat":30.835199,"lon":49.534901,"elev":85},{"icao":"OIAM","name":"Mahshahr Airport","lat":30.5562,"lon":49.151901,"elev":8},{"icao":"OIAW","name":"Lieutenant General Qasem Soleimani International Airport","lat":31.3374,"lon":48.762001,"elev":66},{"icao":"OIBA","name":"Abu Musa Island Airport","lat":25.8757,"lon":55.033001,"elev":23},{"icao":"OIBB","name":"Bushehr Airport","lat":28.9447994232,"lon":50.8345985413,"elev":68},{"icao":"OIBH","name":"Bastak Airport","lat":27.21269989013672,"lon":54.318599700927734,"elev":1350},{"icao":"OIBJ","name":"Jam Airport","lat":27.820499,"lon":52.3522,"elev":2173},{"icao":"OIBK","name":"Kish International Airport","lat":26.5261993408,"lon":53.980201721200004,"elev":101},{"icao":"OIBL","name":"Bandar Lengeh International Airport","lat":26.532283,"lon":54.82484,"elev":67},{"icao":"OIBP","name":"Persian Gulf International Airport","lat":27.379601,"lon":52.737701,"elev":27},{"icao":"OIBQ","name":"Khark Airport","lat":29.260503,"lon":50.322193,"elev":17},{"icao":"OIBS","name":"Siri Airport","lat":25.908899,"lon":54.539398,"elev":43},{"icao":"OIBV","name":"Lavan Airport","lat":26.810742,"lon":53.354302,"elev":76},{"icao":"OICC","name":"Shahid Ashrafi Esfahani Airport","lat":34.3459014893,"lon":47.1581001282,"elev":4307},{"icao":"OICI","name":"Ilam Airport","lat":33.58660125732422,"lon":46.40480041503906,"elev":4404},{"icao":"OICK","name":"Khoram Abad Airport","lat":33.43539810180664,"lon":48.282901763916016,"elev":3782},{"icao":"OICS","name":"Sanandaj Airport","lat":35.24589920043945,"lon":47.00920104980469,"elev":4522},{"icao":"OIFE","name":"Hesa Airport","lat":32.928902,"lon":51.5611,"elev":5256},{"icao":"OIFK","name":"Kashan Airport","lat":33.895302,"lon":51.577,"elev":3465},{"icao":"OIFM","name":"Isfahan Shahid Beheshti International Airport","lat":32.750755,"lon":51.861483,"elev":5059},{"icao":"OIFS","name":"Shahrekord Airport","lat":32.2971992493,"lon":50.842201232899995,"elev":6723},{"icao":"OIGG","name":"Sardar-e-Jangal Airport","lat":37.323333,"lon":49.617778,"elev":-40},{"icao":"OIHH","name":"Hamadan Airport","lat":34.869202,"lon":48.552502,"elev":5755},{"icao":"OIHR","name":"Arak Airport","lat":34.1381,"lon":49.847301,"elev":5440},{"icao":"OIHS","name":"Nojeh Air Base","lat":35.211601,"lon":48.6534,"elev":5609},{"icao":"OIIE","name":"Imam Khomeini International Airport","lat":35.416099548339844,"lon":51.152198791503906,"elev":3305},{"icao":"OIII","name":"Mehrabad International Airport","lat":35.68920135498047,"lon":51.31340026855469,"elev":3962},{"icao":"OIIK","name":"Qazvin Airport","lat":36.240101,"lon":50.0471,"elev":4184},{"icao":"OIIP","name":"Payam Karaj International Airport","lat":35.7761,"lon":50.826698,"elev":4170},{"icao":"OIIS","name":"Semnan Municipal Airport","lat":35.591099,"lon":53.495098,"elev":3665},{"icao":"OIKB","name":"Bandar Abbas International Airport","lat":27.218299865722656,"lon":56.37779998779297,"elev":22},{"icao":"OIKJ","name":"Jiroft Airport","lat":28.723519,"lon":57.675037,"elev":2663},{"icao":"OIKK","name":"Ayatollah Hashemi Rafsanjani International Airport","lat":30.271276,"lon":56.949692,"elev":5741},{"icao":"OIKM","name":"Bam Airport","lat":29.0842,"lon":58.450001,"elev":3231},{"icao":"OIKP","name":"Havadarya Airport","lat":27.1583,"lon":56.172501,"elev":19},{"icao":"OIKQ","name":"Qeshm Dayrestan International Airport","lat":26.754639,"lon":55.902353,"elev":45},{"icao":"OIKR","name":"Rafsanjan Airport","lat":30.298345,"lon":56.048979,"elev":5298},{"icao":"OIKY","name":"Sirjan Airport","lat":29.5509,"lon":55.672699,"elev":5846},{"icao":"OIMB","name":"Birjand International Airport","lat":32.896525,"lon":59.281258,"elev":4952},{"icao":"OIMC","name":"Sarakhs Airport","lat":36.501202,"lon":61.064899,"elev":945},{"icao":"OIMJ","name":"Shahrud International Airport","lat":36.425301,"lon":55.104198,"elev":4215},{"icao":"OIMM","name":"Mashhad International Airport","lat":36.235198974609375,"lon":59.64099884033203,"elev":3263},{"icao":"OIMN","name":"Bojnord Airport","lat":37.49300003051758,"lon":57.30820083618164,"elev":3499},{"icao":"OIMS","name":"Sabzevar National Airport","lat":36.16809844970703,"lon":57.59519958496094,"elev":3010},{"icao":"OIMT","name":"Tabas Airport","lat":33.667801,"lon":56.8927,"elev":2312},{"icao":"OINE","name":"Kalaleh Airport","lat":37.383301,"lon":55.452,"elev":425},{"icao":"OING","name":"Gorgan Airport","lat":36.909400939899996,"lon":54.4012985229,"elev":-24},{"icao":"OINJ","name":"Bishe Kola Air Base","lat":36.655102,"lon":52.349602,"elev":-79},{"icao":"OINN","name":"Nowshahr Airport","lat":36.664286,"lon":51.46273,"elev":-61},{"icao":"OINR","name":"Ramsar Airport","lat":36.90701,"lon":50.687316,"elev":-70},{"icao":"OINZ","name":"Sari Dasht-e Naz International Airport","lat":36.644408,"lon":53.188761,"elev":35},{"icao":"OISF","name":"Fasa Airport","lat":28.8918,"lon":53.723301,"elev":4261},{"icao":"OISJ","name":"Jahrom Airport","lat":28.586700439499996,"lon":53.5791015625,"elev":3358},{"icao":"OISL","name":"Lar Airport","lat":27.6747,"lon":54.383301,"elev":2641},{"icao":"OISR","name":"Lamerd Airport","lat":27.3727,"lon":53.188801,"elev":1337},{"icao":"OISS","name":"Shiraz Shahid Dastghaib International Airport","lat":29.5392,"lon":52.589802,"elev":4927},{"icao":"OISY","name":"Yasuj Airport","lat":30.702238,"lon":51.542988,"elev":5939},{"icao":"OITH","name":"Khaneh Airport","lat":36.729096,"lon":45.158084,"elev":4804},{"icao":"OITK","name":"Khoy Airport","lat":38.4275016784668,"lon":44.97359848022461,"elev":3981},{"icao":"OITL","name":"Ardabil Airport","lat":38.3256988525,"lon":48.4244003296,"elev":4315},{"icao":"OITM","name":"Sahand Airport","lat":37.347999572753906,"lon":46.127899169921875,"elev":4396},{"icao":"OITP","name":"Parsabad-Moghan Airport","lat":39.6036,"lon":47.8815,"elev":251},{"icao":"OITR","name":"Urmia Airport","lat":37.6680984497,"lon":45.0686988831,"elev":4343},{"icao":"OITT","name":"Tabriz International Airport","lat":38.1339,"lon":46.235001,"elev":4459},{"icao":"OITU","name":"Maku National Airport","lat":39.191293,"lon":44.928505,"elev":3136},{"icao":"OITZ","name":"Zanjan Airport","lat":36.7737007141,"lon":48.3594017029,"elev":5382},{"icao":"OIYY","name":"Shahid Sadooghi Airport","lat":31.9048995972,"lon":54.2765007019,"elev":4054},{"icao":"OIZB","name":"Zabol Airport","lat":31.098301,"lon":61.5439,"elev":1628},{"icao":"OIZC","name":"Chabahar Konarak International Airport","lat":25.44319,"lon":60.382167,"elev":13},{"icao":"OIZH","name":"Zahedan International Airport","lat":29.47570037841797,"lon":60.90620040893555,"elev":4564},{"icao":"OIZI","name":"Iranshahr Airport","lat":27.236099,"lon":60.720001,"elev":2040},{"icao":"OIZJ","name":"Jask Airport","lat":25.654757,"lon":57.801718,"elev":19},{"icao":"OJAI","name":"Queen Alia International Airport","lat":31.7226009369,"lon":35.9931983948,"elev":2395},{"icao":"OJAM","name":"Amman Civil (Marka International) Airport","lat":31.9727,"lon":35.9916,"elev":2555},{"icao":"OJAQ","name":"King Hussein International Airport","lat":29.611601,"lon":35.018101,"elev":175},{"icao":"OJHR","name":"H4 Air Base","lat":32.5392,"lon":38.195,"elev":2250},{"icao":"OJKA","name":"King Abdullah II Air Base","lat":31.997999,"lon":36.219501,"elev":null},{"icao":"OJKF","name":"King Feisal Air Base","lat":30.3435,"lon":36.147701,"elev":2884},{"icao":"OJMF","name":"King Hussein Air College","lat":32.3564,"lon":36.259201,"elev":2240},{"icao":"OJMS","name":"Muwaffaq Salti Air Base","lat":31.8256,"lon":36.782001,"elev":1706},{"icao":"OJPH","name":"Prince Hassan Air Base","lat":32.160702,"lon":37.149399,"elev":2220},{"icao":"OKAJ","name":"Ahmed Al Jaber Air Base","lat":28.9347991943,"lon":47.791900634799994,"elev":409},{"icao":"OKKK","name":"Kuwait International Airport","lat":29.226601,"lon":47.968899,"elev":206},{"icao":"OLBA","name":"Beirut Rafic Hariri International Airport","lat":33.820899963378906,"lon":35.488399505615234,"elev":87},{"icao":"OLKA","name":"Rene Mouawad Air Base","lat":34.589298,"lon":36.011299,"elev":75},{"icao":"OMAA","name":"Zayed International Airport","lat":24.443764,"lon":54.651718,"elev":88},{"icao":"OMAB","name":"Buhasa Airport","lat":23.599701,"lon":53.379398,"elev":null},{"icao":"OMAD","name":"Al Bateen Executive Airport","lat":24.428301,"lon":54.458099,"elev":16},{"icao":"OMAF","name":"Futaysi Airport","lat":24.378889,"lon":54.316111,"elev":null},{"icao":"OMAJ","name":"Jebel Dhanna Airport","lat":24.187755,"lon":52.613934,"elev":43},{"icao":"OMAL","name":"Al Ain International Airport","lat":24.2617,"lon":55.6092,"elev":869},{"icao":"OMAM","name":"Al Dhafra Air Base","lat":24.248199462900004,"lon":54.547698974599996,"elev":77},{"icao":"OMAQ","name":"Qarnayn Airport","lat":24.930599,"lon":52.855099,"elev":null},{"icao":"OMAR","name":"Arzanah Airport","lat":24.780872,"lon":52.559871,"elev":15},{"icao":"OMAS","name":"Das Island Airport","lat":25.138234,"lon":52.874429,"elev":12},{"icao":"OMAW","name":"Abu Dhabi Northeast Airport - Suweihan Air Base","lat":24.526793,"lon":54.974812,"elev":88},{"icao":"OMAZ","name":"Zirku Airport","lat":24.862492,"lon":53.077141,"elev":14},{"icao":"OMBY","name":"Sir Bani Yas Airport","lat":24.283611,"lon":52.580278,"elev":25},{"icao":"OMDB","name":"Dubai International Airport","lat":25.2527999878,"lon":55.3643989563,"elev":62},{"icao":"OMDL","name":"Delma Airport","lat":24.51,"lon":52.3352,"elev":30},{"icao":"OMDM","name":"Al Minhad Air Base","lat":25.0268001556,"lon":55.3661994934,"elev":165},{"icao":"OMDW","name":"Al Maktoum International Airport","lat":24.896356,"lon":55.161389,"elev":114},{"icao":"OMFJ","name":"Fujairah International Airport","lat":25.1122,"lon":56.324001,"elev":152},{"icao":"OMRJ","name":"Jazirah Airport","lat":25.664957,"lon":55.774413,"elev":null},{"icao":"OMRK","name":"Ras Al Khaimah International Airport","lat":25.613500595092773,"lon":55.93880081176758,"elev":102},{"icao":"OMRS","name":"Al Saqr Field","lat":25.752944,"lon":55.959234,"elev":2},{"icao":"OMSJ","name":"Sharjah International Airport","lat":25.3286,"lon":55.5172,"elev":111},{"icao":"OOBR","name":"Buraimi Airport","lat":24.241626,"lon":55.783674,"elev":970},{"icao":"OOFD","name":"Fahud Airport","lat":22.354759,"lon":56.484146,"elev":552},{"icao":"OOGB","name":"Qarn Alam Airport","lat":21.377199,"lon":57.056293,"elev":443},{"icao":"OOKB","name":"Khasab Airport","lat":26.171,"lon":56.240601,"elev":100},{"icao":"OOLK","name":"Lekhwair Airport","lat":22.804866,"lon":55.372801,"elev":354},{"icao":"OOMA","name":"RAFO Masirah","lat":20.6754,"lon":58.890499,"elev":64},{"icao":"OOMS","name":"Muscat International Airport","lat":23.5933,"lon":58.284401,"elev":48},{"icao":"OOMX","name":"Marmul Airport","lat":18.138999,"lon":55.179005,"elev":925},{"icao":"OOSA","name":"Salalah Airport","lat":17.038700103759766,"lon":54.09130096435547,"elev":73},{"icao":"OOSH","name":"Sohar Airport","lat":24.38604,"lon":56.62541,"elev":20},{"icao":"OOTH","name":"Thumrait Air Base","lat":17.666,"lon":54.024601,"elev":1570},{"icao":"OPBN","name":"Bannu Airport","lat":32.9729,"lon":70.527901,"elev":1325},{"icao":"OPBT","name":"Jam Nida Northwest Airport","lat":26.198099,"lon":67.5037,"elev":418},{"icao":"OPBW","name":"Bahawalpur Airport","lat":29.348100662231445,"lon":71.71800231933594,"elev":392},{"icao":"OPCH","name":"Chitral Airport","lat":35.886213,"lon":71.799922,"elev":4920},{"icao":"OPCL","name":"Chilas Airport","lat":35.426700592,"lon":74.081703186,"elev":4146},{"icao":"OPCT","name":"Chirat Airport","lat":33.968601,"lon":71.963535,"elev":1192},{"icao":"OPDB","name":"Dalbandin Airport","lat":28.878299713100002,"lon":64.3998031616,"elev":2800},{"icao":"OPDG","name":"Dera Ghazi Khan Airport","lat":29.961000442504883,"lon":70.48590087890625,"elev":492},{"icao":"OPDI","name":"Dera Ismael Khan Airport [IN-ACTIVE]","lat":31.909401,"lon":70.896599,"elev":594},{"icao":"OPFA","name":"Faisalabad International Airport","lat":31.364999771118164,"lon":72.99479675292969,"elev":591},{"icao":"OPGD","name":"Gwadar International Airport","lat":25.232391,"lon":62.327671,"elev":36},{"icao":"OPGT","name":"Gilgit Airport","lat":35.918800354003906,"lon":74.33360290527344,"elev":4796},{"icao":"OPGW","name":"New Gwadar International Airport","lat":25.296733,"lon":62.498822,"elev":61},{"icao":"OPIS","name":"Islamabad International Airport","lat":33.549,"lon":72.82566,"elev":1761},{"icao":"OPJA","name":"Shahbaz Air Base","lat":28.28420066833496,"lon":68.44969940185547,"elev":185},{"icao":"OPJI","name":"Jiwani Airport (INACTIVE}","lat":25.067801,"lon":61.805401,"elev":186},{"icao":"OPKA","name":"Cape Monz Airport","lat":24.828406,"lon":66.666029,"elev":40},{"icao":"OPKC","name":"Jinnah International Airport","lat":24.9065,"lon":67.160797,"elev":100},{"icao":"OPKD","name":"Hyderabad Airport","lat":25.3181,"lon":68.366096,"elev":130},{"icao":"OPKE","name":"Chore Airport","lat":25.525999,"lon":69.771797,"elev":200},{"icao":"OPKF","name":"Gharo Airport","lat":24.729,"lon":67.587601,"elev":20},{"icao":"OPKH","name":"Khuzdar Airport","lat":27.790599823,"lon":66.6473007202,"elev":4012},{"icao":"OPKT","name":"Kohat Airport","lat":33.5699996948,"lon":71.4400024414,"elev":1650},{"icao":"OPKW","name":"Thar Airport","lat":27.203205,"lon":69.14884,"elev":167},{"icao":"OPLA","name":"Allama Iqbal International Airport","lat":31.521601,"lon":74.403603,"elev":712},{"icao":"OPLL","name":"Loralai Airport","lat":30.355499267578125,"lon":68.6135025024414,"elev":4631},{"icao":"OPMA","name":"Mangla Airport","lat":33.05009841918945,"lon":73.63839721679688,"elev":902},{"icao":"OPMF","name":"Muzaffarabad Airport","lat":34.339001,"lon":73.508598,"elev":2691},{"icao":"OPMI","name":"Mianwali Air Base","lat":32.5630989074707,"lon":71.5707015991211,"elev":690},{"icao":"OPMJ","name":"Moenjodaro Airport","lat":27.335199,"lon":68.143097,"elev":154},{"icao":"OPMP","name":"Sindhri Tharparkar Airport","lat":25.68280029296875,"lon":69.07279968261719,"elev":51},{"icao":"OPMT","name":"Multan International Airport","lat":30.20319938659668,"lon":71.41909790039062,"elev":403},{"icao":"OPNH","name":"Shaheed Benazirabad Airport","lat":26.2194,"lon":68.390099,"elev":95},{"icao":"OPOR","name":"Ormara Airport","lat":25.276625,"lon":64.588343,"elev":10},{"icao":"OPPC","name":"Parachinar Airport","lat":33.9021,"lon":70.071602,"elev":5800},{"icao":"OPPG","name":"Panjgur Airport","lat":26.9545,"lon":64.1325,"elev":3289},{"icao":"OPPI","name":"Pasni Airport","lat":25.290501,"lon":63.3451,"elev":33},{"icao":"OPPS","name":"Peshawar International Airport","lat":33.993900299072266,"lon":71.51460266113281,"elev":1158},{"icao":"OPQT","name":"Quetta International Airport","lat":30.251399993896484,"lon":66.93779754638672,"elev":5267},{"icao":"OPRK","name":"Shaikh Zaid Airport","lat":28.383899688720703,"lon":70.27960205078125,"elev":271},{"icao":"OPRT","name":"Rawalakot Airport","lat":33.849701,"lon":73.798103,"elev":5479},{"icao":"OPSB","name":"Sibi Airport","lat":29.571199,"lon":67.8479,"elev":436},{"icao":"OPSD","name":"Skardu Airport","lat":35.33549880981445,"lon":75.53600311279297,"elev":7316},{"icao":"OPSK","name":"Sukkur Airport","lat":27.722000122070312,"lon":68.79170227050781,"elev":196},{"icao":"OPSN","name":"Sehwan Sharif Airport","lat":26.473101,"lon":67.717201,"elev":121},{"icao":"OPSR","name":"Mushaf Air Base","lat":32.04859924316406,"lon":72.66500091552734,"elev":614},{"icao":"OPSS","name":"Saidu Sharif Airport","lat":34.813599,"lon":72.352798,"elev":3183},{"icao":"OPST","name":"Sialkot International Airport","lat":32.535557,"lon":74.363892,"elev":837},{"icao":"OPSU","name":"Sui Airport","lat":28.645099639892578,"lon":69.1769027709961,"elev":763},{"icao":"OPSW","name":"Sawan Airport","lat":26.9662,"lon":68.878098,"elev":160},{"icao":"OPTA","name":"Tarbela Dam Airport","lat":33.9860992432,"lon":72.61139678960001,"elev":1114},{"icao":"OPTH","name":"Talhar Airport","lat":24.84149932861328,"lon":68.8384017944336,"elev":28},{"icao":"OPTU","name":"Turbat International Airport","lat":25.986400604248047,"lon":63.03020095825195,"elev":498},{"icao":"OPWN","name":"Wana Airport","lat":32.3046989440918,"lon":69.57039642333984,"elev":4550},{"icao":"OPZB","name":"Zhob Airport","lat":31.358400344848633,"lon":69.4636001586914,"elev":4728},{"icao":"OPZM","name":"Zamzama Heliport","lat":26.710944,"lon":67.66725,"elev":128},{"icao":"ORAA","name":"Al Asad Air Base","lat":33.7855987549,"lon":42.4412002563,"elev":618},{"icao":"ORAI","name":"Al Iskandariyah Airport","lat":32.969567,"lon":44.271268,"elev":146},{"icao":"ORAN","name":"An Numaniyah Air Base","lat":32.504356,"lon":45.33306,"elev":72},{"icao":"ORAT","name":"Al Taqaddum Air Base","lat":33.33810043335,"lon":43.597099304199,"elev":275},{"icao":"ORBB","name":"Bamarni Airport","lat":37.098801,"lon":43.266602,"elev":3455},{"icao":"ORBI","name":"Baghdad International Airport / New Al Muthana Air Base","lat":33.262501,"lon":44.2346,"elev":114},{"icao":"ORBM","name":"Mosul International Airport","lat":36.305801,"lon":43.1474,"elev":719},{"icao":"ORBR","name":"Bashur Airfield","lat":36.533699,"lon":44.339901,"elev":2079},{"icao":"ORER","name":"Erbil International Airport","lat":36.23759841918945,"lon":43.963199615478516,"elev":1341},{"icao":"ORKK","name":"Kirkuk Air Base","lat":35.469501,"lon":44.3489,"elev":1061},{"icao":"ORMM","name":"Basra International Airport","lat":30.549101,"lon":47.662102,"elev":11},{"icao":"ORNI","name":"Al Najaf International Airport","lat":31.989853,"lon":44.404317,"elev":103},{"icao":"ORSU","name":"Sulaymaniyah International Airport","lat":35.5617485046,"lon":45.316738128699996,"elev":2494},{"icao":"ORTF","name":"Tall Afar Army Air Field","lat":36.2831,"lon":42.403,"elev":996},{"icao":"ORTI","name":"Al Taji Army Air Field","lat":33.523899,"lon":44.256699,"elev":121},{"icao":"ORTK","name":"Tikrit East Airport","lat":34.608257,"lon":43.775711,"elev":null},{"icao":"ORTS","name":"Tikrit South Airport","lat":34.534641,"lon":43.677574,"elev":356},{"icao":"ORUB","name":"Ubaydah Bin Al Jarrah Airport","lat":32.481998,"lon":45.757099,"elev":68},{"icao":"OSAP","name":"Aleppo International Airport","lat":36.180698,"lon":37.2244,"elev":1276},{"icao":"OSDI","name":"Damascus International Airport","lat":33.4114990234375,"lon":36.51559829711914,"elev":2020},{"icao":"OSDZ","name":"Deir ez-Zor Airport","lat":35.2854,"lon":40.175999,"elev":700},{"icao":"OSKL","name":"Qamishli Airport","lat":37.020599,"lon":41.191399,"elev":1480},{"icao":"OSLK","name":"Hmeimim Air Base","lat":35.4011,"lon":35.9487,"elev":157},{"icao":"OSPR","name":"Palmyra Airport","lat":34.5574,"lon":38.316898,"elev":1322},{"icao":"OTBD","name":"Doha International Airport","lat":25.259431,"lon":51.565528,"elev":35},{"icao":"OTBH","name":"Al Udeid Air Base","lat":25.1173000336,"lon":51.3149986267,"elev":130},{"icao":"OTHH","name":"Hamad International Airport","lat":25.273056,"lon":51.608056,"elev":13},{"icao":"OYAA","name":"Aden International Airport","lat":12.8295,"lon":45.028801,"elev":7},{"icao":"OYAT","name":"Ataq Airport","lat":14.5513,"lon":46.826199,"elev":3735},{"icao":"OYBN","name":"Beihan Airport","lat":14.781714,"lon":45.719703,"elev":3800},{"icao":"OYGD","name":"Al Ghaydah International Airport","lat":16.193341,"lon":52.174186,"elev":134},{"icao":"OYKM","name":"Kamaran Airport","lat":15.368755,"lon":42.612515,"elev":51},{"icao":"OYMB","name":"Marib Airport","lat":15.469228,"lon":45.327272,"elev":3300},{"icao":"OYMS","name":"Mukeiras Airport","lat":13.9368,"lon":45.657,"elev":7080},{"icao":"OYQN","name":"Qishn Airport","lat":15.417,"lon":51.682999,"elev":100},{"icao":"OYRN","name":"Riyan Mukalla International Airport","lat":14.6626,"lon":49.375,"elev":54},{"icao":"OYSH","name":"Sadah Airport","lat":16.967542,"lon":43.728103,"elev":5938},{"icao":"OYSN","name":"Sanaa International Airport","lat":15.4763,"lon":44.2197,"elev":7216},{"icao":"OYSQ","name":"Socotra International Airport","lat":12.632093,"lon":53.906173,"elev":146},{"icao":"OYSY","name":"Seiyun Hadhramaut International Airport","lat":15.9661,"lon":48.7883,"elev":2097},{"icao":"OYTZ","name":"Ta'izz International Airport","lat":13.686,"lon":44.139099,"elev":4838},{"icao":"OYZM","name":"Al-Hazm Airport","lat":16.207117,"lon":44.790263,"elev":3200}]