[{"icao":"YABA","name":"Albany Airport","lat":-34.943333,"lon":117.808889,"elev":233},{"icao":"YABI","name":"Abingdon Downs Airport","lat":-17.608814,"lon":143.183531,"elev":573},{"icao":"YADG","name":"Aldinga Airport","lat":-35.288753,"lon":138.49421,"elev":110},{"icao":"YAGD","name":"Augustus Downs Airport","lat":-18.5087,"lon":139.882084,"elev":46},{"icao":"YALA","name":"Marla Airport","lat":-27.334298,"lon":133.627696,"elev":328},{"icao":"YALG","name":"Adels Grove Airport","lat":-18.694729,"lon":138.527727,"elev":null},{"icao":"YALX","name":"Alexandria Homestead Airport","lat":-19.060199737548828,"lon":136.7100067138672,"elev":null},{"icao":"YAMB","name":"RAAF Base Amberley","lat":-27.635381,"lon":152.711223,"elev":91},{"icao":"YAMC","name":"Aramac Airport","lat":-22.95788,"lon":145.249504,"elev":232},{"icao":"YAMK","name":"Andamooka Airport","lat":-30.438299,"lon":137.136993,"elev":76},{"icao":"YAMT","name":"Amata Airport","lat":-26.097363,"lon":131.202732,"elev":695},{"icao":"YANG","name":"West Angelas Airport","lat":-23.1355555556,"lon":118.707222222,"elev":2340},{"icao":"YANK","name":"Anna Creek Airport","lat":-28.89678,"lon":136.170795,"elev":300},{"icao":"YAPH","name":"Alpha Airport","lat":-23.652849,"lon":146.582668,"elev":1255},{"icao":"YARA","name":"Ararat Airport","lat":-37.309978,"lon":142.988688,"elev":1008},{"icao":"YARG","name":"Argyle Airport","lat":-16.636944,"lon":128.451389,"elev":522},{"icao":"YARK","name":"Arkaroola Airport","lat":-30.4067,"lon":139.345993,"elev":783},{"icao":"YARM","name":"Armidale Airport","lat":-30.528099060099997,"lon":151.617004395,"elev":3556},{"icao":"YARS","name":"Ardrossan Airport","lat":-34.447189,"lon":137.888292,"elev":92},{"icao":"YARY","name":"Arrabury Airport","lat":-26.69639,"lon":141.048718,"elev":334},{"icao":"YATN","name":"Atherton Airport","lat":-17.256402,"lon":145.511482,"elev":2450},{"icao":"YAUR","name":"Aurukun Airport","lat":-13.354019,"lon":141.720028,"elev":31},{"icao":"YAUV","name":"Auvergne Airport","lat":-15.690555,"lon":130.008818,"elev":null},{"icao":"YAYE","name":"Ayers Rock Connellan Airport","lat":-25.185913,"lon":130.97703,"elev":1626},{"icao":"YAYR","name":"Ayr Airport","lat":-19.595832,"lon":147.324495,"elev":41},{"icao":"YBAB","name":"Baralaba","lat":-24.19357,"lon":149.843166,"elev":340},{"icao":"YBAD","name":"Baradine Airport","lat":-30.955246,"lon":149.091984,"elev":998},{"icao":"YBAF","name":"Brisbane Archerfield Airport","lat":-27.572351,"lon":153.004167,"elev":63},{"icao":"YBAR","name":"Barcaldine Airport","lat":-23.566268,"lon":145.302086,"elev":878},{"icao":"YBAS","name":"Alice Springs Airport","lat":-23.806588,"lon":133.903427,"elev":1789},{"icao":"YBAU","name":"Badu Island Airport","lat":-10.14955,"lon":142.173665,"elev":14},{"icao":"YBAW","name":"Barkly Downs Airport","lat":-20.4958333333,"lon":138.474722222,"elev":810},{"icao":"YBBN","name":"Brisbane International Airport","lat":-27.384199142456055,"lon":153.11700439453125,"elev":13},{"icao":"YBBT","name":"Boort Airport","lat":-36.138637,"lon":143.722994,"elev":298},{"icao":"YBCG","name":"Gold Coast Airport","lat":-28.165962,"lon":153.506641,"elev":21},{"icao":"YBCK","name":"Blackall Airport","lat":-24.431678,"lon":145.429716,"elev":928},{"icao":"YBCS","name":"Cairns International Airport","lat":-16.878921,"lon":145.74948,"elev":10},{"icao":"YBCV","name":"Charleville Airport","lat":-26.4132995605,"lon":146.261993408,"elev":1003},{"icao":"YBDF","name":"Bedford Downs Airport","lat":-17.286699295,"lon":127.462997437,"elev":1750},{"icao":"YBDG","name":"Bendigo Airport","lat":-36.739399,"lon":144.330002,"elev":705},{"icao":"YBDV","name":"Birdsville Airport","lat":-25.897499084472656,"lon":139.34800720214844,"elev":159},{"icao":"YBEB","name":"Bellburn Airstrip","lat":-17.545,"lon":128.305,"elev":810},{"icao":"YBEE","name":"Beverley Airport","lat":-30.190595,"lon":139.55532,"elev":116},{"icao":"YBEO","name":"Betoota Airport","lat":-25.694791,"lon":140.738339,"elev":91},{"icao":"YBGD","name":"Boolgeeda","lat":-22.541111,"lon":117.269444,"elev":1871},{"icao":"YBGO","name":"Balgo Hill Airport","lat":-20.148333,"lon":127.973889,"elev":1440},{"icao":"YBGR","name":"Bridgewater Airport","lat":-36.619558,"lon":143.952109,"elev":91},{"icao":"YBHI","name":"Broken Hill Airport","lat":-32.0013999939,"lon":141.472000122,"elev":958},{"icao":"YBHM","name":"Hamilton Island Airport","lat":-20.3581008911,"lon":148.95199585,"elev":15},{"icao":"YBIE","name":"Bedourie Airport","lat":-24.3461,"lon":139.460007,"elev":300},{"icao":"YBIR","name":"Birchip Airport","lat":-35.999699,"lon":142.917007,"elev":340},{"icao":"YBIU","name":"Ballidu Airport","lat":-30.592693,"lon":116.779288,"elev":995},{"icao":"YBKE","name":"Bourke Airport","lat":-30.039199829101562,"lon":145.95199584960938,"elev":352},{"icao":"YBKT","name":"Burketown Airport","lat":-17.748600006103516,"lon":139.53399658203125,"elev":21},{"icao":"YBLA","name":"Benalla Airport","lat":-36.551899,"lon":146.007004,"elev":569},{"icao":"YBLC","name":"Balcanoona Airport","lat":-30.535,"lon":139.337006,"elev":144},{"icao":"YBLL","name":"Bollon Airport","lat":-28.051247,"lon":147.481799,"elev":182},{"icao":"YBLN","name":"Busselton Margaret River Regional Airport","lat":-33.687222,"lon":115.400278,"elev":55},{"icao":"YBLT","name":"Ballarat Airport","lat":-37.5117,"lon":143.791,"elev":1433},{"icao":"YBMA","name":"Mount Isa Airport","lat":-20.66638,"lon":139.488468,"elev":1121},{"icao":"YBMI","name":"Boomi Airport","lat":-28.728373,"lon":149.595181,"elev":618},{"icao":"YBMK","name":"Mackay Airport","lat":-21.170816,"lon":149.182588,"elev":19},{"icao":"YBMY","name":"Bamyili Airport","lat":-14.519469,"lon":132.881753,"elev":215},{"icao":"YBNA","name":"Ballina Byron Gateway Airport","lat":-28.833236,"lon":153.561471,"elev":7},{"icao":"YBNS","name":"Bairnsdale Airport","lat":-37.887539,"lon":147.569379,"elev":165},{"icao":"YBOA","name":"Boonah Airport","lat":-28.017922,"lon":152.675857,"elev":318},{"icao":"YBOC","name":"Booleroo Centre Airport","lat":-32.88989,"lon":138.366382,"elev":418},{"icao":"YBOI","name":"Boigu Island Airport","lat":-9.23278,"lon":142.218002,"elev":23},{"icao":"YBOK","name":"Oakey Army Aviation Centre","lat":-27.409262,"lon":151.736727,"elev":1335},{"icao":"YBOM","name":"Bombala Airport","lat":-36.904999,"lon":149.182007,"elev":2415},{"icao":"YBOU","name":"Boulia Airport","lat":-22.913299560546875,"lon":139.89999389648438,"elev":542},{"icao":"YBPI","name":"Brampton Island Airport","lat":-20.804633,"lon":149.279931,"elev":11},{"icao":"YBPN","name":"Proserpine Whitsunday Coast Airport","lat":-20.494416,"lon":148.553583,"elev":82},{"icao":"YBRK","name":"Rockhampton Airport","lat":-23.380019,"lon":150.475359,"elev":34},{"icao":"YBRL","name":"Borroloola Airport","lat":-16.0753,"lon":136.302002,"elev":55},{"icao":"YBRM","name":"Broome International Airport","lat":-17.948817,"lon":122.227482,"elev":56},{"icao":"YBRN","name":"Balranald Airport","lat":-34.624834,"lon":143.577114,"elev":210},{"icao":"YBRW","name":"Brewarrina Airport","lat":-29.975792,"lon":146.81438,"elev":414},{"icao":"YBRY","name":"Barimunya Airport","lat":-22.673889,"lon":119.166111,"elev":2082},{"icao":"YBSU","name":"Sunshine Coast Airport","lat":-26.593324,"lon":153.08319,"elev":15},{"icao":"YBTH","name":"Bathurst Airport","lat":-33.406817,"lon":149.651161,"elev":2435},{"icao":"YBTI","name":"Bathurst Island Airport","lat":-11.764966,"lon":130.615774,"elev":67},{"icao":"YBTL","name":"Townsville Airport / RAAF Base Townsville","lat":-19.252904,"lon":146.766512,"elev":18},{"icao":"YBTR","name":"Blackwater Airport","lat":-23.6031,"lon":148.807007,"elev":657},{"icao":"YBUD","name":"Bundaberg Airport","lat":-24.905039,"lon":152.322612,"elev":107},{"icao":"YBUN","name":"Bunbury Airport","lat":-33.378056,"lon":115.676944,"elev":53},{"icao":"YBWN","name":"Bowen Airport","lat":-20.017999,"lon":148.215245,"elev":8},{"icao":"YBWP","name":"Weipa Airport","lat":-12.677493,"lon":141.922618,"elev":63},{"icao":"YBWW","name":"Toowoomba Wellcamp Airport","lat":-27.558332,"lon":151.793335,"elev":1509},{"icao":"YBWX","name":"Barrow Island Airport","lat":-20.864444,"lon":115.406111,"elev":26},{"icao":"YBYS","name":"Beverley Springs Airport","lat":-16.732756,"lon":125.439105,"elev":385},{"icao":"YCAG","name":"Caiguna Airport","lat":-32.280457,"lon":125.477943,"elev":87},{"icao":"YCAH","name":"Coolah Airport","lat":-31.773864,"lon":149.615322,"elev":504},{"icao":"YCAR","name":"Carnarvon Airport","lat":-24.884337,"lon":113.666393,"elev":13},{"icao":"YCAS","name":"Casino Airport","lat":-28.881304,"lon":153.060724,"elev":86},{"icao":"YCBA","name":"Cobar Airport","lat":-31.538299560546875,"lon":145.79400634765625,"elev":724},{"icao":"YCBB","name":"Coonabarabran Airport","lat":-31.3325,"lon":149.266998,"elev":2117},{"icao":"YCBP","name":"Coober Pedy Airport","lat":-29.038312,"lon":134.722166,"elev":740},{"icao":"YCBR","name":"Collarenebri Airport","lat":-29.523239,"lon":148.578243,"elev":152},{"icao":"YCCA","name":"Chinchilla Airport","lat":-26.771947,"lon":150.617571,"elev":1028},{"icao":"YCCT","name":"Coconut Island Airport","lat":-10.050139,"lon":143.070007,"elev":3},{"icao":"YCCY","name":"Cloncurry Airport","lat":-20.668600082399998,"lon":140.503997803,"elev":616},{"icao":"YCDO","name":"Condobolin Airport","lat":-33.06565,"lon":147.21316,"elev":650},{"icao":"YCDR","name":"Caloundra Airport","lat":-26.80336,"lon":153.104975,"elev":12},{"icao":"YCDU","name":"Ceduna Airport","lat":-32.13059997558594,"lon":133.7100067138672,"elev":77},{"icao":"YCEE","name":"Cleve Airport","lat":-33.709702,"lon":136.505005,"elev":589},{"icao":"YCFD","name":"Camfield Airport","lat":-17.021699905395508,"lon":131.32699584960938,"elev":null},{"icao":"YCFS","name":"Coffs Harbour Airport","lat":-30.320601,"lon":153.115997,"elev":18},{"icao":"YCGO","name":"Chillagoe Airport","lat":-17.138386,"lon":144.528494,"elev":1110},{"icao":"YCHK","name":"Christmas Creek Airport","lat":-22.354302,"lon":119.642603,"elev":1462},{"icao":"YCHT","name":"Charters Towers Airport","lat":-20.0431,"lon":146.272995,"elev":955},{"icao":"YCIN","name":"RAAF Base Curtin","lat":-17.581389,"lon":123.828333,"elev":300},{"icao":"YCKI","name":"Croker Island Airport","lat":-11.165,"lon":132.483002,"elev":16},{"icao":"YCKN","name":"Cooktown Airport","lat":-15.443649,"lon":145.183221,"elev":26},{"icao":"YCMT","name":"Clermont Airport","lat":-22.7731,"lon":147.621002,"elev":908},{"icao":"YCMU","name":"Cunnamulla Airport","lat":-28.030000686645508,"lon":145.6219940185547,"elev":630},{"icao":"YCMW","name":"Camooweal Airport","lat":-19.911699,"lon":138.125,"elev":241},{"icao":"YCNF","name":"Camp Nifty Airport","lat":-21.6717,"lon":121.586998,"elev":295},{"icao":"YCNK","name":"Cessnock Airport","lat":-32.787498,"lon":151.341995,"elev":210},{"icao":"YCNM","name":"Coonamble Airport","lat":-30.980946,"lon":148.377833,"elev":604},{"icao":"YCOD","name":"Cordillo Downs Airport","lat":-26.74530029296875,"lon":140.63800048828125,"elev":125},{"icao":"YCOE","name":"Coen Airport","lat":-13.761133,"lon":143.113311,"elev":532},{"icao":"YCOI","name":"Collie Airport","lat":-33.3666992188,"lon":116.217002869,"elev":818},{"icao":"YCOM","name":"Cooma Snowy Mountains Airport","lat":-36.300445,"lon":148.972408,"elev":3088},{"icao":"YCOO","name":"Cooinda Airport","lat":-12.903300285339355,"lon":132.53199768066406,"elev":13},{"icao":"YCOR","name":"Corowa Airport","lat":-35.994701,"lon":146.356995,"elev":469},{"icao":"YCPR","name":"Cape Preston Airport","lat":-20.977222,"lon":116.275,"elev":77},{"icao":"YCRG","name":"Corryong Airport","lat":-36.18280029296875,"lon":147.88800048828125,"elev":963},{"icao":"YCRN","name":"Cranbourn Airfield","lat":-41.161173,"lon":147.015096,"elev":300},{"icao":"YCRY","name":"Croydon Airport","lat":-18.225000381469727,"lon":142.25799560546875,"elev":107},{"icao":"YCSV","name":"Collinsville Airport","lat":-20.59670066833496,"lon":147.86000061035156,"elev":180},{"icao":"YCTM","name":"Cootamundra Airport","lat":-34.624283,"lon":148.036641,"elev":1110},{"icao":"YCUA","name":"Cudal Airport","lat":-33.278026,"lon":148.768708,"elev":491},{"icao":"YCUE","name":"Cue Airport","lat":-27.450663,"lon":117.917703,"elev":442},{"icao":"YCWA","name":"Coondewanna Airport","lat":-22.966667,"lon":118.813333,"elev":2300},{"icao":"YCWI","name":"Cowarie Airport","lat":-27.711700439453125,"lon":138.3280029296875,"elev":52},{"icao":"YCWL","name":"Cowell Airport","lat":-33.666698,"lon":136.891998,"elev":39},{"icao":"YCWR","name":"Cowra Airport","lat":-33.846894,"lon":148.648007,"elev":966},{"icao":"YCWY","name":"Coolawanyah Airport","lat":-21.7946,"lon":117.755,"elev":1195},{"icao":"YDAY","name":"Dalby Airport","lat":-27.158476,"lon":151.263428,"elev":1137},{"icao":"YDBI","name":"Dirranbandi Airport","lat":-28.587912,"lon":148.217161,"elev":567},{"icao":"YDBR","name":"Dunbar Airport","lat":-16.047394,"lon":142.394415,"elev":15},{"icao":"YDBY","name":"Derby Airport","lat":-17.37193,"lon":123.66221,"elev":24},{"icao":"YDGA","name":"Dalgaranga Gold Mine Airport","lat":-27.829722,"lon":117.316389,"elev":1459},{"icao":"YDIX","name":"Dixie Airport","lat":-15.1174944348,"lon":143.316049576,"elev":580},{"icao":"YDKI","name":"Dunk Island Airport","lat":-17.93913,"lon":146.141447,"elev":6},{"icao":"YDLK","name":"Dulkaninna Airport","lat":-29.0132999420166,"lon":138.4810028076172,"elev":null},{"icao":"YDLQ","name":"Deniliquin Airport","lat":-35.5593986511,"lon":144.945999146,"elev":316},{"icao":"YDLT","name":"Delta Downs Airport","lat":-16.99169921875,"lon":141.31700134277344,"elev":15},{"icao":"YDLV","name":"Delissaville Airport","lat":-12.550000190734863,"lon":130.68499755859375,"elev":34},{"icao":"YDMG","name":"Doomadgee Airport","lat":-17.9403,"lon":138.822006,"elev":153},{"icao":"YDNI","name":"Darnley Island Airport","lat":-9.579176,"lon":143.780276,"elev":null},{"icao":"YDOR","name":"Dorunda Airport","lat":-16.5537,"lon":141.8238,"elev":58},{"icao":"YDPD","name":"Davenport Downs Airport","lat":-24.149999618530273,"lon":141.10800170898438,"elev":95},{"icao":"YDPO","name":"Devonport Airport","lat":-41.1697006226,"lon":146.429992676,"elev":33},{"icao":"YDRA","name":"Dongara Airport","lat":-29.298128,"lon":114.927334,"elev":null},{"icao":"YDRD","name":"Drysdale River Airport","lat":-15.71357,"lon":126.381097,"elev":360},{"icao":"YDRH","name":"Durham Downs Airport","lat":-27.075000762939453,"lon":141.89999389648438,"elev":116},{"icao":"YDRI","name":"Durrie Airport","lat":-25.684999465942383,"lon":140.22799682617188,"elev":58},{"icao":"YDVR","name":"Docker River Airport","lat":-24.859533,"lon":129.122209,"elev":589},{"icao":"YDYS","name":"Dysart Airport","lat":-22.6222,"lon":148.363998,"elev":670},{"icao":"YECH","name":"Echuca Airport","lat":-36.15719985961914,"lon":144.76199340820312,"elev":323},{"icao":"YECL","name":"Eucla Airport","lat":-31.707084,"lon":128.877243,"elev":22},{"icao":"YEDA","name":"Etadunna Airport","lat":-28.740801,"lon":138.589005,"elev":null},{"icao":"YEEB","name":"Eneabba Airport","lat":-29.832500457763672,"lon":115.24600219726562,"elev":null},{"icao":"YELD","name":"Elcho Island Airport","lat":-12.019399642899998,"lon":135.570999146,"elev":101},{"icao":"YEML","name":"Emerald Airport","lat":-23.5674991608,"lon":148.179000854,"elev":624},{"icao":"YERN","name":"Ernabella Airport","lat":-26.2632999420166,"lon":132.1820068359375,"elev":707},{"icao":"YESE","name":"Elrose Airport","lat":-20.9764,"lon":141.0066,"elev":645},{"icao":"YESP","name":"Esperance Airport","lat":-33.684399,"lon":121.822998,"elev":470},{"icao":"YEVD","name":"Evans Head Aerodrome","lat":-29.101786,"lon":153.419255,"elev":20},{"icao":"YEXM","name":"Exmouth Airport","lat":-22.040677,"lon":114.102663,"elev":null},{"icao":"YFBS","name":"Forbes Airport","lat":-33.363602,"lon":147.934998,"elev":760},{"icao":"YFDF","name":"Fortescue - Dave Forrest Aerodrome","lat":-22.290754,"lon":119.437143,"elev":1555},{"icao":"YFIL","name":"Finley Airport","lat":-35.658918,"lon":145.561214,"elev":380},{"icao":"YFLI","name":"Flinders Island Airport","lat":-40.091702,"lon":147.992996,"elev":10},{"icao":"YFLO","name":"Flora Valley Airport","lat":-18.297844,"lon":128.455897,"elev":null},{"icao":"YFNE","name":"Finke Airport","lat":-25.5946998596,"lon":134.582992554,"elev":null},{"icao":"YFRT","name":"Forrest Airport","lat":-30.83662,"lon":128.112811,"elev":511},{"icao":"YFRV","name":"Oombulgurri Airport","lat":-15.1647,"lon":127.8401,"elev":22},{"icao":"YFST","name":"Forster (Wallis Is) Airport","lat":-32.202489,"lon":152.481136,"elev":4},{"icao":"YFTZ","name":"Fitzroy Crossing Airport","lat":-18.183596,"lon":125.559783,"elev":368},{"icao":"YGAM","name":"Gamboola Airport","lat":-16.54412,"lon":143.668155,"elev":null},{"icao":"YGAY","name":"Gayndah Airport","lat":-25.615939,"lon":151.62055,"elev":369},{"icao":"YGBI","name":"South Goulburn Is Airport","lat":-11.65,"lon":133.382004,"elev":19},{"icao":"YGDH","name":"Gunnedah Airport","lat":-30.957511,"lon":150.248981,"elev":863},{"icao":"YGDI","name":"Goondiwindi Airport","lat":-28.5214,"lon":150.320007,"elev":714},{"icao":"YGDN","name":"Gordon Downs Airport","lat":-18.6781005859375,"lon":128.5919952392578,"elev":800},{"icao":"YGDS","name":"Gregory Downs Airport","lat":-18.625,"lon":139.23300170898438,"elev":52},{"icao":"YGEL","name":"Geraldton Airport","lat":-28.796101,"lon":114.707001,"elev":121},{"icao":"YGFN","name":"Clarence Valley Regional Airport","lat":-29.754795,"lon":153.031234,"elev":110},{"icao":"YGIA","name":"Ginbata Airport","lat":-22.5812,"lon":120.03553,"elev":1409},{"icao":"YGIB","name":"Gibb River Airport","lat":-16.418661,"lon":126.445685,"elev":509},{"icao":"YGKL","name":"Great Keppel Is Airport","lat":-23.184575,"lon":150.94164,"elev":21},{"icao":"YGLA","name":"Gladstone Airport","lat":-23.869763,"lon":151.225439,"elev":64},{"icao":"YGLB","name":"Goulburn Airport","lat":-34.810298919677734,"lon":149.7259979248047,"elev":2141},{"icao":"YGLE","name":"Glengyle Airport","lat":-24.808300018310547,"lon":139.60000610351562,"elev":91},{"icao":"YGLI","name":"Glen Innes Airport","lat":-29.676029,"lon":151.691156,"elev":3433},{"icao":"YGLN","name":"Glencoe Airport","lat":-31.620644,"lon":148.19885,"elev":728},{"icao":"YGLO","name":"Glenormiston Airport","lat":-22.8883,"lon":138.824997,"elev":158},{"icao":"YGNV","name":"Greenvale Airport","lat":-18.9966,"lon":145.0136,"elev":null},{"icao":"YGON","name":"Mount Gordon Airport","lat":-19.77265,"lon":139.40425,"elev":900},{"icao":"YGPT","name":"Garden Point Airport","lat":-11.399686,"lon":130.425568,"elev":90},{"icao":"YGSC","name":"Gascoyne Junction Airport","lat":-25.0546,"lon":115.2026,"elev":499},{"icao":"YGTE","name":"Groote Eylandt Airport","lat":-13.972405,"lon":136.458553,"elev":53},{"icao":"YGTH","name":"Griffith Airport","lat":-34.2508010864,"lon":146.067001343,"elev":439},{"icao":"YGTN","name":"Georgetown Airport","lat":-18.302676,"lon":143.530925,"elev":995},{"icao":"YGTO","name":"George Town Airport","lat":-41.079491,"lon":146.839061,"elev":131},{"icao":"YGYM","name":"Gympie Airport","lat":-26.290149,"lon":152.702998,"elev":260},{"icao":"YHAW","name":"Wilpena Pound Airport","lat":-31.855907,"lon":138.468079,"elev":321},{"icao":"YHAY","name":"Hay Airport","lat":-34.531399,"lon":144.830002,"elev":305},{"icao":"YHBA","name":"Hervey Bay Airport","lat":-25.320127,"lon":152.880662,"elev":60},{"icao":"YHBR","name":"Humbert River Airport","lat":-16.489669799804688,"lon":130.63027954101562,"elev":null},{"icao":"YHBY","name":"Henbury Airport","lat":-24.584,"lon":133.236,"elev":null},{"icao":"YHDY","name":"Headingly Airport","lat":-21.33329963684082,"lon":138.2830047607422,"elev":null},{"icao":"YHHY","name":"Highbury Airport","lat":-16.424148,"lon":143.14534,"elev":null},{"icao":"YHID","name":"Horn Island Airport","lat":-10.585628,"lon":142.292653,"elev":43},{"icao":"YHIL","name":"Hillside Airport","lat":-21.718283,"lon":119.440334,"elev":935},{"icao":"YHLC","name":"Halls Creek Airport","lat":-18.2339,"lon":127.669998,"elev":1346},{"icao":"YHMB","name":"Hermannsburg Airport","lat":-23.926485,"lon":132.807798,"elev":593},{"icao":"YHML","name":"Hamilton Airport","lat":-37.64889907836914,"lon":142.06500244140625,"elev":803},{"icao":"YHOO","name":"Hooker Creek Airport","lat":-18.3367004395,"lon":130.638000488,"elev":320},{"icao":"YHOT","name":"Mount Hotham Airport","lat":-37.0475006104,"lon":147.333999634,"elev":4260},{"icao":"YHPN","name":"Hopetoun Airport","lat":-35.715302,"lon":142.360001,"elev":256},{"icao":"YHSM","name":"Horsham Airport","lat":-36.669700622558594,"lon":142.17300415039062,"elev":445},{"icao":"YHTL","name":"Heathlands Airport","lat":-11.7369,"lon":142.576996,"elev":null},{"icao":"YHUG","name":"Hughenden Airport","lat":-20.815001,"lon":144.225006,"elev":1043},{"icao":"YIDK","name":"Indulkana Airport","lat":-26.965435,"lon":133.321989,"elev":401},{"icao":"YIFL","name":"Innisfail Airport","lat":-17.559401,"lon":146.011993,"elev":46},{"icao":"YIFY","name":"Iffley Airport","lat":-18.899999618530273,"lon":141.2169952392578,"elev":43},{"icao":"YIGM","name":"Ingham Airport","lat":-18.664149,"lon":146.145804,"elev":49},{"icao":"YIKM","name":"Inkerman Airport","lat":-16.229225,"lon":141.434607,"elev":6},{"icao":"YINJ","name":"Injune Airport","lat":-25.851,"lon":148.5497,"elev":401},{"icao":"YINN","name":"Innamincka Airport","lat":-27.697589,"lon":140.739498,"elev":54},{"icao":"YINW","name":"Inverway Airport","lat":-17.8411006927,"lon":129.643005371,"elev":null},{"icao":"YISF","name":"Isisford Airport","lat":-24.25830078125,"lon":144.4250030517578,"elev":694},{"icao":"YIVL","name":"Inverell Airport","lat":-29.888299942,"lon":151.143997192,"elev":2667},{"icao":"YJAB","name":"Jabiru Airport","lat":-12.658056,"lon":132.894638,"elev":85},{"icao":"YJBO","name":"JDandBoo","lat":-37.85774,"lon":146.91748,"elev":380},{"icao":"YJBY","name":"Jervis Bay Airport","lat":-35.145811,"lon":150.696285,"elev":200},{"icao":"YJDA","name":"Jundah Airport","lat":-24.838045,"lon":143.061962,"elev":145},{"icao":"YJER","name":"Jerilderie Airport","lat":-35.373032,"lon":145.723152,"elev":110},{"icao":"YJLC","name":"Julia Creek Airport","lat":-20.66830062866211,"lon":141.72300720214844,"elev":404},{"icao":"YJUN","name":"Jundee Airport","lat":-26.4217,"lon":120.577003,"elev":562},{"icao":"YJUR","name":"Jurien Bay Airport","lat":-30.302699,"lon":115.055551,"elev":15},{"icao":"YJVS","name":"Jervois Airport","lat":-22.9133,"lon":136.119995,"elev":331},{"icao":"YKAL","name":"Kalumburu Airport","lat":-14.28784,"lon":126.633182,"elev":29},{"icao":"YKAR","name":"Karara Airport","lat":-29.217223,"lon":116.687154,"elev":1011},{"icao":"YKAT","name":"Katoomba Airport","lat":-33.667818,"lon":150.322741,"elev":1000},{"icao":"YKBL","name":"Kambalda Airport","lat":-31.1907,"lon":121.5978,"elev":1073},{"icao":"YKBR","name":"Kalbarri Airport","lat":-27.692813,"lon":114.259169,"elev":157},{"icao":"YKBY","name":"Streaky Bay Airport","lat":-32.836621,"lon":134.292991,"elev":69},{"icao":"YKCA","name":"Kings Canyon Airport","lat":-24.260229,"lon":131.488924,"elev":2100},{"icao":"YKCS","name":"Kings Creek Airport","lat":-24.421285,"lon":131.819458,"elev":615},{"icao":"YKER","name":"Kerang Airport","lat":-35.751399993896484,"lon":143.93899536132812,"elev":254},{"icao":"YKII","name":"King Island Airport","lat":-39.877498626708984,"lon":143.8780059814453,"elev":132},{"icao":"YKKG","name":"Kalkgurung Airport","lat":-17.431900024414062,"lon":130.80799865722656,"elev":646},{"icao":"YKLA","name":"Koolatah Airport","lat":-15.888484,"lon":142.439461,"elev":null},{"icao":"YKLB","name":"Koolburra Airport","lat":-15.318900108337402,"lon":143.9550018310547,"elev":350},{"icao":"YKMB","name":"Karumba Airport","lat":-17.45669937133789,"lon":140.8300018310547,"elev":5},{"icao":"YKML","name":"Kamileroi Airport","lat":-19.375,"lon":140.0570068359375,"elev":91},{"icao":"YKMP","name":"Kempsey Airport","lat":-31.07232,"lon":152.765313,"elev":54},{"icao":"YKNG","name":"Katanning Airport","lat":-33.699423,"lon":117.65703,"elev":null},{"icao":"YKOW","name":"Kowanyama Airport","lat":-15.485369,"lon":141.752572,"elev":35},{"icao":"YKPR","name":"Kalpowar Airport","lat":-14.89,"lon":144.22,"elev":90},{"icao":"YKRY","name":"Kingaroy Airport","lat":-26.581077,"lon":151.839927,"elev":1492},{"icao":"YKSC","name":"Kingscote Airport","lat":-35.71390151977539,"lon":137.52099609375,"elev":24},{"icao":"YKUB","name":"Kubin Island Airport","lat":-10.22648,"lon":142.219619,"elev":15},{"icao":"YLAH","name":"Lawn Hill Airport","lat":-18.57453,"lon":138.586106,"elev":122},{"icao":"YLEC","name":"Leigh Creek Airport","lat":-30.598301,"lon":138.425995,"elev":856},{"icao":"YLEO","name":"Leonora Airport","lat":-28.87809944152832,"lon":121.31500244140625,"elev":1217},{"icao":"YLEV","name":"Lake Evella Airport","lat":-12.498900413513184,"lon":135.80599975585938,"elev":256},{"icao":"YLFD","name":"Lakefield Airport","lat":-14.9207,"lon":144.203,"elev":107},{"icao":"YLGU","name":"Legune Airport","lat":-15.215372,"lon":129.448629,"elev":26},{"icao":"YLHI","name":"Lord Howe Island Airport","lat":-31.538204,"lon":159.07546,"elev":5},{"icao":"YLHR","name":"Lockhart River Airport","lat":-12.7869,"lon":143.304993,"elev":77},{"icao":"YLHS","name":"Lyndhurst Airport","lat":-19.1958007812,"lon":144.371002197,"elev":null},{"icao":"YLIN","name":"Lindeman Island Airport","lat":-20.4535999298,"lon":149.039993286,"elev":null},{"icao":"YLIS","name":"Lismore Airport","lat":-28.830689,"lon":153.258419,"elev":35},{"icao":"YLKN","name":"Lake Nash Airport","lat":-20.9807,"lon":137.9178,"elev":640},{"icao":"YLLE","name":"Ballera Airport","lat":-27.405633,"lon":141.809458,"elev":385},{"icao":"YLMQ","name":"Lake Macquarie Airport","lat":-33.065975,"lon":151.646283,"elev":5},{"icao":"YLND","name":"Lakeland Airport","lat":-15.841213,"lon":144.849118,"elev":930},{"icao":"YLOK","name":"Lock Airport","lat":-33.5442008972168,"lon":135.6929931640625,"elev":350},{"icao":"YLOR","name":"Lorraine Airport","lat":-18.99329948425293,"lon":139.90699768066406,"elev":61},{"icao":"YLOV","name":"Lotus Vale Airport","lat":-17.048299789399998,"lon":141.37600708,"elev":null},{"icao":"YLRA","name":"Laura Airport","lat":-15.560495,"lon":144.451418,"elev":627},{"icao":"YLRD","name":"Lightning Ridge Airport","lat":-29.452857,"lon":147.977146,"elev":540},{"icao":"YLRE","name":"Longreach Airport","lat":-23.4342,"lon":144.279999,"elev":627},{"icao":"YLRS","name":"New Laura Airport","lat":-15.182758,"lon":144.345535,"elev":148},{"icao":"YLST","name":"Leinster Airport","lat":-27.843299865722656,"lon":120.7030029296875,"elev":1631},{"icao":"YLTN","name":"Laverton Airport","lat":-28.614267,"lon":122.428673,"elev":1530},{"icao":"YLTT","name":"Lady Elliot Island Airstrip","lat":-24.1129,"lon":152.7156,"elev":20},{"icao":"YLTV","name":"Latrobe Valley Airport","lat":-38.211004,"lon":146.470817,"elev":180},{"icao":"YLZI","name":"Lizard Island Airport","lat":-14.673273,"lon":145.454571,"elev":70},{"icao":"YMAA","name":"Mabuiag Island Airport","lat":-9.950168,"lon":142.19523,"elev":null},{"icao":"YMAE","name":"Murray Island Airport","lat":-9.915105,"lon":144.054644,"elev":300},{"icao":"YMAV","name":"Melbourne Avalon International Airport","lat":-38.040269,"lon":144.467196,"elev":35},{"icao":"YMAY","name":"Albury Airport","lat":-36.066758,"lon":146.959148,"elev":539},{"icao":"YMBA","name":"Mareeba Airport","lat":-17.070277,"lon":145.424228,"elev":1560},{"icao":"YMBL","name":"Marble Bar Airport","lat":-21.163299560546875,"lon":119.83300018310547,"elev":194},{"icao":"YMCO","name":"Mallacoota Airport","lat":-37.59830093383789,"lon":149.72000122070312,"elev":31},{"icao":"YMCR","name":"Manners Creek Airport","lat":-22.100000381469727,"lon":137.98300170898438,"elev":null},{"icao":"YMCT","name":"Millicent Airport","lat":-37.58359909057617,"lon":140.36599731445312,"elev":56},{"icao":"YMDG","name":"Mudgee Airport","lat":-32.564794,"lon":149.609452,"elev":1545},{"icao":"YMDI","name":"Mandora Airport","lat":-19.73799,"lon":120.83818,"elev":30},{"icao":"YMDS","name":"Macdonald Downs Airport","lat":-22.444000244099996,"lon":135.199005127,"elev":null},{"icao":"YMEK","name":"Meekatharra Airport","lat":-26.6117000579834,"lon":118.5479965209961,"elev":1713},{"icao":"YMEN","name":"Melbourne Essendon Airport","lat":-37.7281,"lon":144.901993,"elev":282},{"icao":"YMER","name":"Merimbula Airport","lat":-36.9085998535,"lon":149.901000977,"elev":7},{"icao":"YMEU","name":"Merluna Airport","lat":-13.0649,"lon":142.4536,"elev":276},{"icao":"YMGB","name":"Milingimbi Airport","lat":-12.0944004059,"lon":134.893997192,"elev":53},{"icao":"YMGD","name":"Maningrida Airport","lat":-12.0560998917,"lon":134.23399353,"elev":123},{"icao":"YMGN","name":"Mount Gunson Airport","lat":-31.4597,"lon":137.174443333,"elev":285},{"icao":"YMGR","name":"Margaret River (Station) Airport","lat":-18.6217002869,"lon":126.883003235,"elev":289},{"icao":"YMGT","name":"Margaret River Airport","lat":-33.930599,"lon":115.099998,"elev":374},{"icao":"YMGV","name":"Musgrave Airport","lat":-14.7757,"lon":143.5047,"elev":302},{"icao":"YMHB","name":"Hobart International Airport","lat":-42.8371,"lon":147.51295,"elev":13},{"icao":"YMHO","name":"Mount House Airport","lat":-17.051917,"lon":125.712491,"elev":948},{"icao":"YMHU","name":"McArthur River Mine Airport","lat":-16.4424991608,"lon":136.083999634,"elev":131},{"icao":"YMIA","name":"Mildura Airport","lat":-34.229198455799995,"lon":142.085998535,"elev":167},{"icao":"YMIN","name":"Minlaton Airport","lat":-34.743801,"lon":137.529087,"elev":null},{"icao":"YMIP","name":"Mitchell Plateau Airport","lat":-14.790817,"lon":125.825729,"elev":null},{"icao":"YMIR","name":"Miranda Downs Airport","lat":-17.328899,"lon":141.886002,"elev":null},{"icao":"YMIT","name":"Mitchell Airport","lat":-26.483299255371094,"lon":147.93699645996094,"elev":1144},{"icao":"YMJM","name":"Manjimup Airport","lat":-34.26530075073242,"lon":116.13999938964844,"elev":940},{"icao":"YMLS","name":"Miles Airport","lat":-26.806447,"lon":150.168953,"elev":304},{"icao":"YMLT","name":"Launceston Airport","lat":-41.544935,"lon":147.210785,"elev":562},{"icao":"YMMB","name":"Melbourne Moorabbin Airport","lat":-37.975799560546875,"lon":145.1020050048828,"elev":50},{"icao":"YMMI","name":"Murrin Murrin Airport","lat":-28.705299,"lon":121.89099,"elev":1535},{"icao":"YMML","name":"Melbourne Airport","lat":-37.661548,"lon":144.836432,"elev":434},{"icao":"YMMU","name":"Middlemount Airport","lat":-22.801444,"lon":148.706796,"elev":547},{"icao":"YMND","name":"Maitland Airport","lat":-32.701265,"lon":151.492912,"elev":85},{"icao":"YMNE","name":"Mount Keith Airport","lat":-27.28733,"lon":120.554937,"elev":1792},{"icao":"YMNK","name":"Monkira Airport","lat":-24.816699981689453,"lon":140.5330047607422,"elev":107},{"icao":"YMNS","name":"Mount Swan Airport","lat":-22.624696,"lon":135.034512,"elev":1641},{"icao":"YMNY","name":"Morney Airport","lat":-25.358299255371094,"lon":141.43299865722656,"elev":104},{"icao":"YMOG","name":"Mount Magnet Airport","lat":-28.116100311279297,"lon":117.84200286865234,"elev":1354},{"icao":"YMOO","name":"Mooraberree Airport","lat":-25.25,"lon":140.98300170898438,"elev":85},{"icao":"YMOR","name":"Moree Airport","lat":-29.498899459799997,"lon":149.845001221,"elev":701},{"icao":"YMOT","name":"Moreton Airport","lat":-12.444199562099998,"lon":142.638000488,"elev":null},{"icao":"YMPA","name":"Minnipa Airport","lat":-32.843299865722656,"lon":135.14500427246094,"elev":155},{"icao":"YMQA","name":"Marqua Airport","lat":-22.80579948425293,"lon":137.25100708007812,"elev":null},{"icao":"YMQI","name":"Macquarie Island Station Heliport","lat":-54.49852,"lon":158.93804,"elev":null},{"icao":"YMRB","name":"Moranbah Airport","lat":-22.057800293,"lon":148.07699585,"elev":770},{"icao":"YMRE","name":"Marree Airport","lat":-29.663299560546875,"lon":138.06500244140625,"elev":50},{"icao":"YMRO","name":"Moora Airport","lat":-30.684896,"lon":115.982059,"elev":659},{"icao":"YMRW","name":"Morawa Airport","lat":-29.2017,"lon":116.022003,"elev":270},{"icao":"YMRY","name":"Moruya Airport","lat":-35.8978004456,"lon":150.143997192,"elev":14},{"icao":"YMSF","name":"Mount Sanford Station Airport","lat":-16.978300094604492,"lon":130.55499267578125,"elev":231},{"icao":"YMTB","name":"Muttaburra Airport","lat":-22.58329963684082,"lon":144.5330047607422,"elev":230},{"icao":"YMTG","name":"Mount Gambier Airport","lat":-37.744382,"lon":140.780561,"elev":null},{"icao":"YMTI","name":"Mornington Island Airport","lat":-16.662500381469727,"lon":139.17799377441406,"elev":33},{"icao":"YMTO","name":"Monto Airport","lat":-24.892267,"lon":151.101787,"elev":757},{"icao":"YMUC","name":"Muccan Station Airport","lat":-20.658899307250977,"lon":120.06700134277344,"elev":300},{"icao":"YMUG","name":"Mungeranie Airport","lat":-28.009199142456055,"lon":138.65699768066406,"elev":null},{"icao":"YMUK","name":"Mulka Airport","lat":-28.34779930114746,"lon":138.64999389648438,"elev":null},{"icao":"YMUP","name":"Mulga Park Airport","lat":-25.860000610399997,"lon":131.649993896,"elev":null},{"icao":"YMWA","name":"Mullewa Airport","lat":-28.475,"lon":115.516998,"elev":290},{"icao":"YMWT","name":"Moolawatana Airport","lat":-29.9069,"lon":139.765,"elev":265},{"icao":"YMWX","name":"Marion Downs Airport","lat":-23.363702,"lon":139.649663,"elev":null},{"icao":"YMYB","name":"Maryborough Airport","lat":-25.513528,"lon":152.713603,"elev":38},{"icao":"YMYR","name":"Myroodan Station Airport","lat":-18.123996,"lon":124.270261,"elev":null},{"icao":"YMYT","name":"Merty Merty Airport","lat":-28.582713,"lon":140.303264,"elev":null},{"icao":"YNAP","name":"Nappa Merrie Airport","lat":-27.549201,"lon":141.158416,"elev":55},{"icao":"YNAR","name":"Narrandera Airport","lat":-34.7022018433,"lon":146.511993408,"elev":474},{"icao":"YNBR","name":"Narrabri Airport","lat":-30.3192005157,"lon":149.82699585,"elev":788},{"icao":"YNGU","name":"Ngukurr Airport","lat":-14.7228,"lon":134.746994,"elev":45},{"icao":"YNPE","name":"Northern Peninsula Airport","lat":-10.946194,"lon":142.455081,"elev":34},{"icao":"YNRC","name":"Naracoorte Airport","lat":-36.985298,"lon":140.725006,"elev":169},{"icao":"YNRG","name":"Narrogin Airport","lat":-32.93,"lon":117.080002,"elev":1080},{"icao":"YNRV","name":"Ravensthorpe Airport","lat":-33.7971992493,"lon":120.208000183,"elev":197},{"icao":"YNSH","name":"Noosa Airport","lat":-26.423177,"lon":153.064935,"elev":1},{"icao":"YNSM","name":"Norseman Aerodrome","lat":-32.203,"lon":121.758127,"elev":263},{"icao":"YNTN","name":"Normanton Airport","lat":-17.68409,"lon":141.069664,"elev":73},{"icao":"YNUB","name":"Nullabor Motel Airport","lat":-31.441699981689453,"lon":130.90199279785156,"elev":67},{"icao":"YNUL","name":"Nullagine Airport","lat":-21.913299560546875,"lon":120.197998046875,"elev":381},{"icao":"YNUM","name":"Numbulwar Airport","lat":-14.2717,"lon":135.716995,"elev":31},{"icao":"YNWN","name":"Newman Airport","lat":-23.417800903299998,"lon":119.803001404,"elev":1724},{"icao":"YNYN","name":"Nyngan Airport","lat":-31.550645,"lon":147.202973,"elev":569},{"icao":"YOEN","name":"Oenpelli Airport","lat":-12.325,"lon":133.005997,"elev":30},{"icao":"YOKH","name":"Oakden Hills Airport","lat":-31.66598,"lon":137.0361,"elev":308},{"icao":"YOLA","name":"Colac Airport","lat":-38.286701,"lon":143.679993,"elev":450},{"icao":"YOLD","name":"Olympic Dam Airport","lat":-30.483861,"lon":136.876699,"elev":344},{"icao":"YOLW","name":"Onslow Airport","lat":-21.670161,"lon":115.114902,"elev":7},{"icao":"YOOD","name":"Oodnadatta Airport","lat":-27.562473,"lon":135.442946,"elev":118},{"icao":"YOOM","name":"Moomba Airport","lat":-28.0994,"lon":140.197006,"elev":143},{"icao":"YORB","name":"Orbost Airport","lat":-37.790000915527344,"lon":148.61000061035156,"elev":28},{"icao":"YORC","name":"Orchid Beach Airport","lat":-24.959400177002,"lon":153.31500244141,"elev":71},{"icao":"YORG","name":"Orange Airport","lat":-33.382014,"lon":149.131262,"elev":3115},{"icao":"YORV","name":"Ord River Airport","lat":-17.34079933166504,"lon":128.91200256347656,"elev":390},{"icao":"YOSB","name":"Osborne Mine Airport","lat":-22.0816993713,"lon":140.554992676,"elev":285},{"icao":"YOUY","name":"Ouyen Airport","lat":-35.088819,"lon":142.354778,"elev":null},{"icao":"YPAD","name":"Adelaide International Airport","lat":-34.947512,"lon":138.533393,"elev":20},{"icao":"YPAG","name":"Port Augusta Airport","lat":-32.506900787353516,"lon":137.7169952392578,"elev":56},{"icao":"YPAM","name":"Palm Island Airport","lat":-18.755300521850586,"lon":146.58099365234375,"elev":28},{"icao":"YPAS","name":"Packsaddle Airport","lat":-30.29424,"lon":142.13758,"elev":342},{"icao":"YPBO","name":"Paraburdoo Airport","lat":-23.1711006165,"lon":117.745002747,"elev":1406},{"icao":"YPCC","name":"Cocos (Keeling) Islands Airport","lat":-12.19134,"lon":96.833696,"elev":10},{"icao":"YPDI","name":"Pandie Pandie Airport","lat":-26.122248,"lon":139.403501,"elev":null},{"icao":"YPDN","name":"Darwin International Airport / RAAF Darwin","lat":-12.41497,"lon":130.88185,"elev":103},{"icao":"YPDO","name":"Pardoo Airport","lat":-20.119428,"lon":119.571945,"elev":36},{"icao":"YPGV","name":"Gove Airport","lat":-12.269399642899998,"lon":136.817993164,"elev":192},{"icao":"YPIR","name":"Port Pirie Airport","lat":-33.238899,"lon":137.994995,"elev":40},{"icao":"YPJT","name":"Perth Jandakot Airport","lat":-32.09749984741211,"lon":115.88099670410156,"elev":99},{"icao":"YPKA","name":"Karratha Airport","lat":-20.712200164799995,"lon":116.773002625,"elev":29},{"icao":"YPKG","name":"Kalgoorlie Boulder Airport","lat":-30.791543,"lon":121.464586,"elev":1203},{"icao":"YPKS","name":"Parkes Airport","lat":-33.131401062,"lon":148.238998413,"elev":1069},{"icao":"YPKU","name":"East Kimberley Regional (Kununurra) Airport","lat":-15.7781,"lon":128.707993,"elev":145},{"icao":"YPLC","name":"Port Lincoln Airport","lat":-34.6053009033,"lon":135.880004883,"elev":36},{"icao":"YPLM","name":"Learmonth Airport","lat":-22.235201,"lon":114.090024,"elev":19},{"icao":"YPMH","name":"Prominent Hill Airport","lat":-29.716,"lon":135.5244,"elev":745},{"icao":"YPMP","name":"Pormpuraaw Airport","lat":-14.896451,"lon":141.60908,"elev":10},{"icao":"YPMQ","name":"Port Macquarie Airport","lat":-31.4358005524,"lon":152.863006592,"elev":12},{"icao":"YPOD","name":"Portland Airport","lat":-38.31809997558594,"lon":141.4709930419922,"elev":265},{"icao":"YPOK","name":"Porepunkah Airport","lat":-36.717731,"lon":146.890039,"elev":935},{"icao":"YPPD","name":"Port Hedland International Airport","lat":-20.3777999878,"lon":118.625999451,"elev":33},{"icao":"YPPH","name":"Perth International Airport","lat":-31.94029998779297,"lon":115.96700286865234,"elev":67},{"icao":"YPSH","name":"Penneshaw Airport","lat":-35.7558462874,"lon":137.962875366,"elev":null},{"icao":"YPTN","name":"Tindal Airport","lat":-14.521100044250488,"lon":132.3780059814453,"elev":443},{"icao":"YPWR","name":"Woomera Airfield","lat":-31.144199,"lon":136.817001,"elev":548},{"icao":"YPXM","name":"Christmas Island Airport","lat":-10.449382,"lon":105.690931,"elev":916},{"icao":"YQDI","name":"Quirindi Airport","lat":-31.498177,"lon":150.521708,"elev":1054},{"icao":"YQLP","name":"Quilpie Airport","lat":-26.609176,"lon":144.253746,"elev":655},{"icao":"YQNS","name":"Queenstown Airport","lat":-42.075731,"lon":145.530088,"elev":867},{"icao":"YQRN","name":"Quorn Airport","lat":-32.325029,"lon":138.105542,"elev":293},{"icao":"YREN","name":"Renmark Airport","lat":-34.1964,"lon":140.673996,"elev":115},{"icao":"YRMD","name":"Richmond Airport","lat":-20.701900482177734,"lon":143.11500549316406,"elev":676},{"icao":"YRNG","name":"Ramingining Airport","lat":-12.356399536132812,"lon":134.8979949951172,"elev":206},{"icao":"YROB","name":"Robinhood Airport","lat":-18.844999313354492,"lon":143.7100067138672,"elev":460},{"icao":"YROE","name":"Roebourne Airport","lat":-20.763898,"lon":117.155199,"elev":null},{"icao":"YROI","name":"Robinvale Airport","lat":-34.642887,"lon":142.773042,"elev":87},{"icao":"YROM","name":"Roma Airport","lat":-26.545000076300003,"lon":148.774993896,"elev":1032},{"icao":"YRRB","name":"Roper Bar Airport","lat":-14.734814,"lon":134.525485,"elev":92},{"icao":"YRSB","name":"Roseberth Airport","lat":-25.825737,"lon":139.627476,"elev":55},{"icao":"YRTI","name":"Rottnest Island Airport","lat":-32.006699,"lon":115.540001,"elev":12},{"icao":"YRTP","name":"Rutland Plains Airport","lat":-15.644963,"lon":141.844373,"elev":15},{"icao":"YRYH","name":"Roy Hill Station Airport","lat":-22.625815891,"lon":119.959030151,"elev":null},{"icao":"YSAN","name":"Sandstone Airport","lat":-27.979999542236328,"lon":119.2969970703125,"elev":null},{"icao":"YSBK","name":"Sydney Bankstown Airport","lat":-33.923618,"lon":150.990792,"elev":29},{"icao":"YSCB","name":"Canberra Airport","lat":-35.3069,"lon":149.195007,"elev":1886},{"icao":"YSCN","name":"Camden Airport","lat":-34.038338,"lon":150.686406,"elev":230},{"icao":"YSCO","name":"Scone Airport","lat":-32.038012,"lon":150.831966,"elev":745},{"icao":"YSCR","name":"Southern Cross Airport","lat":-31.24,"lon":119.360001,"elev":354},{"icao":"YSDU","name":"Dubbo City Regional Airport","lat":-32.2167015076,"lon":148.574996948,"elev":935},{"icao":"YSEN","name":"Serpentine Airport","lat":-32.394966,"lon":115.870987,"elev":9},{"icao":"YSGE","name":"St George Airport","lat":-28.049699783325195,"lon":148.59500122070312,"elev":656},{"icao":"YSGT","name":"Singleton Airport","lat":-32.600832,"lon":151.193056,"elev":46},{"icao":"YSGW","name":"South Galway Airport","lat":-25.67464,"lon":142.089171,"elev":116},{"icao":"YSHG","name":"Shay Gap Airport","lat":-20.4247,"lon":120.140999,"elev":620},{"icao":"YSHK","name":"Shark Bay Airport","lat":-25.897294,"lon":113.575802,"elev":111},{"icao":"YSHR","name":"Shute Harbour/Whitsunday Airport","lat":-20.276127,"lon":148.754979,"elev":40},{"icao":"YSHT","name":"Shepparton Airport","lat":-36.428341,"lon":145.391473,"elev":374},{"icao":"YSII","name":"Saibai Island Airport","lat":-9.37833,"lon":142.625,"elev":15},{"icao":"YSKR","name":"Skardon River Airport","lat":-11.866259,"lon":142.008762,"elev":29},{"icao":"YSMB","name":"Somersby Airstrip","lat":-33.367681,"lon":151.299806,"elev":860},{"icao":"YSMI","name":"Smithton Airport","lat":-40.834999084472656,"lon":145.08399963378906,"elev":31},{"icao":"YSMP","name":"Smith Point Airport","lat":-11.133566,"lon":132.15957,"elev":null},{"icao":"YSMR","name":"Strathmore Airport","lat":-17.862709,"lon":142.557788,"elev":null},{"icao":"YSNF","name":"Norfolk Island International Airport","lat":-29.041887,"lon":167.939616,"elev":371},{"icao":"YSNW","name":"Naval Air Station Nowra - HMAS Albatross","lat":-34.9466,"lon":150.542451,"elev":400},{"icao":"YSOL","name":"Solomon Airport","lat":-22.25677,"lon":117.850454,"elev":2030},{"icao":"YSPE","name":"Stanthorpe Airport","lat":-28.620113,"lon":151.983281,"elev":2938},{"icao":"YSPK","name":"Spring Creek Airport","lat":-18.637704,"lon":144.545672,"elev":null},{"icao":"YSPT","name":"Southport Airport","lat":-27.921848,"lon":153.371469,"elev":2},{"icao":"YSPV","name":"Springvale Airport","lat":-23.549999,"lon":140.699997,"elev":null},{"icao":"YSRI","name":"RAAF Base Richmond","lat":-33.604652,"lon":150.783051,"elev":67},{"icao":"YSRN","name":"Strahan Airport","lat":-42.154999,"lon":145.292007,"elev":20},{"icao":"YSSY","name":"Sydney Kingsford Smith International Airport","lat":-33.946098,"lon":151.177002,"elev":21},{"icao":"YSTH","name":"St Helens Airport","lat":-41.336700439453125,"lon":148.28199768066406,"elev":48},{"icao":"YSTI","name":"Stephens Island Seaplane Base","lat":-9.51,"lon":143.55,"elev":0},{"icao":"YSTW","name":"Tamworth Airport","lat":-31.077898,"lon":150.845484,"elev":1334},{"icao":"YSWG","name":"Wagga Wagga Airport","lat":-35.163484,"lon":147.46832,"elev":724},{"icao":"YSWH","name":"Swan Hill Airport","lat":-35.37580108642578,"lon":143.5330047607422,"elev":234},{"icao":"YSWL","name":"Stawell Airport","lat":-37.07170104980469,"lon":142.74099731445312,"elev":807},{"icao":"YTAA","name":"Tara Airport","lat":-27.163054,"lon":150.476423,"elev":360},{"icao":"YTAB","name":"Tableland Homestead Airport","lat":-17.2833003998,"lon":126.900001526,"elev":null},{"icao":"YTAM","name":"Taroom Airport","lat":-25.801701,"lon":149.899994,"elev":240},{"icao":"YTBR","name":"Timber Creek Airport","lat":-15.62,"lon":130.445007,"elev":16},{"icao":"YTDR","name":"Theodore Airport","lat":-24.986796,"lon":150.093076,"elev":171},{"icao":"YTEE","name":"Trepell Airport","lat":-21.834999084473,"lon":140.88800048828,"elev":891},{"icao":"YTEF","name":"Telfer Airport","lat":-21.715,"lon":122.228996,"elev":970},{"icao":"YTEM","name":"Temora Airport","lat":-34.421398,"lon":147.511993,"elev":921},{"icao":"YTGA","name":"Tangalooma Airport","lat":-27.137693,"lon":153.364141,"elev":null},{"icao":"YTGM","name":"Thargomindah Airport","lat":-27.986368,"lon":143.812065,"elev":433},{"icao":"YTGT","name":"The Granites Airport","lat":-20.5483,"lon":130.347,"elev":null},{"icao":"YTHD","name":"Theda Station Airport","lat":-14.790567,"lon":126.498041,"elev":700},{"icao":"YTHY","name":"Thylungra Airport","lat":-26.093047,"lon":143.45136,"elev":165},{"icao":"YTIB","name":"Tibooburra Airport","lat":-29.451099,"lon":142.057999,"elev":584},{"icao":"YTKY","name":"Turkey Creek Airport","lat":-17.0408000946,"lon":128.205993652,"elev":null},{"icao":"YTMO","name":"The Monument Airport","lat":-21.811100006104,"lon":139.92399597168,"elev":949},{"icao":"YTMP","name":"Tom Price Airport","lat":-22.746000289900003,"lon":117.869003296,"elev":2300},{"icao":"YTMU","name":"Tumut Aerodrome","lat":-35.26832,"lon":148.240526,"elev":878},{"icao":"YTMY","name":"Tobermorey Airport","lat":-22.255800247192383,"lon":137.9530029296875,"elev":null},{"icao":"YTNG","name":"Thangool Airport","lat":-24.494863,"lon":150.577967,"elev":644},{"icao":"YTNK","name":"Tennant Creek Airport","lat":-19.6343994140625,"lon":134.18299865722656,"elev":1236},{"icao":"YTOC","name":"Tocumwal Airport","lat":-35.81169891357422,"lon":145.60800170898438,"elev":372},{"icao":"YTRE","name":"Taree Airport","lat":-31.888599,"lon":152.514008,"elev":38},{"icao":"YTST","name":"Truscott-Mungalalu Airport","lat":-14.089699745178,"lon":126.3809967041,"elev":181},{"icao":"YTWB","name":"Toowoomba Airport","lat":-27.543365,"lon":151.919112,"elev":2086},{"icao":"YUDA","name":"Undara Airport","lat":-18.19134,"lon":144.61224,"elev":2451},{"icao":"YUNY","name":"Cluny Airport","lat":-24.516700744628906,"lon":139.61700439453125,"elev":90},{"icao":"YUSL","name":"Useless Loop Airport","lat":-26.157923,"lon":113.394817,"elev":62},{"icao":"YVRD","name":"Victoria River Downs Airport","lat":-16.402124,"lon":131.004974,"elev":89},{"icao":"YVRS","name":"Vanrook Station Airport","lat":-16.961532,"lon":141.95227,"elev":43},{"icao":"YWAL","name":"Wallal Downs Airport","lat":-19.7736,"lon":120.649002,"elev":33},{"icao":"YWAV","name":"Wave Hill Airport","lat":-17.393299102783203,"lon":131.1179962158203,"elev":201},{"icao":"YWBL","name":"Warrnambool Airport","lat":-38.2952995300293,"lon":142.44700622558594,"elev":242},{"icao":"YWBS","name":"Warraber Island Airport","lat":-10.20829963684082,"lon":142.8249969482422,"elev":3},{"icao":"YWCA","name":"Wilcannia Airport","lat":-31.522082,"lon":143.378358,"elev":250},{"icao":"YWCH","name":"Walcha Airport","lat":-31.009492,"lon":151.547442,"elev":null},{"icao":"YWCK","name":"Warwick Airport","lat":-28.149401,"lon":151.942993,"elev":1500},{"icao":"YWDG","name":"Windarling Airport","lat":-30.032277,"lon":119.386489,"elev":1502},{"icao":"YWDH","name":"Windorah Airport","lat":-25.410641,"lon":142.668428,"elev":452},{"icao":"YWDL","name":"Wondoola Airport","lat":-18.5750007629,"lon":140.891998291,"elev":58},{"icao":"YWGT","name":"Wangaratta Airport","lat":-36.417914,"lon":146.306896,"elev":504},{"icao":"YWHA","name":"Whyalla Airport","lat":-33.05889892578125,"lon":137.51400756835938,"elev":41},{"icao":"YWIR","name":"Wirraminna Airport","lat":-31.19277,"lon":136.21988,"elev":446},{"icao":"YWIT","name":"Wittenoom Airport","lat":-22.224992,"lon":118.353739,"elev":444},{"icao":"YWKB","name":"Warracknabeal Airport","lat":-36.32109832763672,"lon":142.41900634765625,"elev":397},{"icao":"YWLG","name":"Walgett Airport","lat":-30.032801,"lon":148.126007,"elev":439},{"icao":"YWLM","name":"Newcastle Airport","lat":-32.79499816894531,"lon":151.83399963378906,"elev":31},{"icao":"YWLU","name":"Wiluna Airport","lat":-26.629199981689453,"lon":120.22100067138672,"elev":1649},{"icao":"YWMP","name":"Wrotham Park Airport","lat":-16.658915,"lon":143.999263,"elev":152},{"icao":"YWND","name":"Wondai Airport","lat":-26.277392,"lon":151.861673,"elev":320},{"icao":"YWOR","name":"Wollogorang Airport","lat":-17.2199,"lon":137.93453,"elev":199},{"icao":"YWSL","name":"West Sale Airport","lat":-38.090827,"lon":146.965335,"elev":72},{"icao":"YWSN","name":"Woodstock Station","lat":-19.358723,"lon":142.756948,"elev":null},{"icao":"YWTL","name":"Waterloo Airport","lat":-16.6299991607666,"lon":129.32000732421875,"elev":132},{"icao":"YWTN","name":"Winton Airport","lat":-22.36359977722168,"lon":143.08599853515625,"elev":638},{"icao":"YWTO","name":"Wentworth Airport","lat":-34.086196,"lon":141.891114,"elev":37},{"icao":"YWUD","name":"Wudinna Airport","lat":-33.043301,"lon":135.447006,"elev":310},{"icao":"YWWA","name":"Wee Waa Airport","lat":-30.25830078125,"lon":149.4080047607422,"elev":190},{"icao":"YWWG","name":"Warrawagine Airport","lat":-20.8442001343,"lon":120.702003479,"elev":null},{"icao":"YWWI","name":"Woodie Woodie Airport","lat":-21.64551,"lon":121.191184,"elev":null},{"icao":"YWWL","name":"West Wyalong Airport","lat":-33.9371986389,"lon":147.190994263,"elev":859},{"icao":"YWYM","name":"Wyndham Airport","lat":-15.5114,"lon":128.153,"elev":14},{"icao":"YWYY","name":"Wynyard Airport","lat":-40.997039,"lon":145.726,"elev":62},{"icao":"YYAL","name":"Yalgoo Airport","lat":-28.355300903299998,"lon":116.683998108,"elev":null},{"icao":"YYKI","name":"Yorke Island Airport","lat":-9.752801,"lon":143.405673,"elev":10},{"icao":"YYLR","name":"Yeelirrie Airport","lat":-27.277060037800002,"lon":120.095672607,"elev":null},{"icao":"YYMI","name":"Yam Island Airport","lat":-9.899187,"lon":142.774265,"elev":null},{"icao":"YYND","name":"Yuendumu Airport","lat":-22.2542,"lon":131.781998,"elev":2205},{"icao":"YYNG","name":"Young Airport","lat":-34.255576,"lon":148.247118,"elev":1267},{"icao":"YYOR","name":"Yorketown Airport","lat":-35.003564,"lon":137.619295,"elev":null},{"icao":"YYRM","name":"Yarram Airport","lat":-38.566654,"lon":146.752854,"elev":15},{"icao":"YYTA","name":"Yalata Mission Airport","lat":-31.4706,"lon":131.824997,"elev":null},{"icao":"YYWG","name":"Yarrawonga Airport","lat":-36.031512,"lon":146.027958,"elev":423}]