[{"icao":"ZBAA","name":"Beijing Capital International Airport","lat":40.080101013183594,"lon":116.58499908447266,"elev":116},{"icao":"ZBAD","name":"Beijing Daxing International Airport","lat":39.501289,"lon":116.413967,"elev":98},{"icao":"ZBAL","name":"Alxa Left Banner Bayanhot Airport","lat":38.748317,"lon":105.58416,"elev":4560},{"icao":"ZBAR","name":"Alxa Right Banner Badanjilin Airport","lat":39.225,"lon":101.546,"elev":4659},{"icao":"ZBBB","name":"Beijing Xijiao Airport","lat":39.958592,"lon":116.256765,"elev":164},{"icao":"ZBCD","name":"Chengde Puning Airport","lat":41.1225,"lon":118.073889,"elev":null},{"icao":"ZBCF","name":"Chifeng Yulong Airport","lat":42.159723,"lon":118.840971,"elev":2018},{"icao":"ZBCZ","name":"Changzhi Wangcun Airport","lat":36.247501,"lon":113.125999,"elev":null},{"icao":"ZBDH","name":"Qinhuangdao Beidaihe Airport","lat":39.666384,"lon":119.061384,"elev":46},{"icao":"ZBDS","name":"Ordos Ejin Horo Airport","lat":39.493514,"lon":109.8599,"elev":4557},{"icao":"ZBDT","name":"Datong Yungang International Airport","lat":40.06139,"lon":113.480509,"elev":3442},{"icao":"ZBEN","name":"Ejin Banner Taolai Airport","lat":42.0155,"lon":101.0005,"elev":3077},{"icao":"ZBER","name":"Erenhot Saiwusu International Airport","lat":43.424079,"lon":112.091081,"elev":3301},{"icao":"ZBES","name":"Arxan Yi'ershi Airport","lat":47.3106,"lon":119.9117,"elev":2925},{"icao":"ZBHD","name":"Handan Airport","lat":36.525833,"lon":114.425556,"elev":229},{"icao":"ZBHH","name":"Hohhot Baita International Airport","lat":40.849658,"lon":111.824598,"elev":3556},{"icao":"ZBHZ","name":"Holingol Huolinhe Airport","lat":45.487222,"lon":119.407222,"elev":null},{"icao":"ZBLA","name":"Hulunbuir Hailar Airport","lat":49.208616,"lon":119.822301,"elev":2169},{"icao":"ZBLF","name":"Linfen Yaodu Airport","lat":36.132629,"lon":111.641236,"elev":1483},{"icao":"ZBLL","name":"Lüliang Dawu Airport","lat":37.683333,"lon":111.142778,"elev":null},{"icao":"ZBMV","name":"Dengkou General Aviation Airport","lat":40.302832,"lon":107.010698,"elev":3458},{"icao":"ZBMZ","name":"Manzhouli Xijiao Airport","lat":49.566667,"lon":117.33,"elev":2231},{"icao":"ZBOW","name":"Baotou Donghe Airport","lat":40.560001,"lon":109.997002,"elev":3321},{"icao":"ZBSG","name":"Shuozhou Zirun Airport","lat":39.273241,"lon":112.691552,"elev":null},{"icao":"ZBSJ","name":"Shijiazhuang Zhengding International Airport","lat":38.280701,"lon":114.696999,"elev":233},{"icao":"ZBSN","name":"Tangshan Sannühe Airport","lat":39.7178,"lon":118.002625,"elev":50},{"icao":"ZBTJ","name":"Tianjin Binhai International Airport","lat":39.124401092499994,"lon":117.346000671,"elev":10},{"icao":"ZBTL","name":"Tongliao Airport","lat":43.556702,"lon":122.199997,"elev":2395},{"icao":"ZBUH","name":"Wuhai Airport","lat":39.7934,"lon":106.7993,"elev":3650},{"icao":"ZBUL","name":"Ulanhot Yilelite Airport","lat":46.195333,"lon":122.008333,"elev":null},{"icao":"ZBXH","name":"Xilinhot Airport","lat":43.91559982299805,"lon":115.96399688720703,"elev":null},{"icao":"ZBXT","name":"Xingtai Dalian Airport","lat":36.8831,"lon":114.4293,"elev":280},{"icao":"ZBXZ","name":"Xinzhou Wutaishan Airport","lat":38.597456,"lon":112.969173,"elev":2527},{"icao":"ZBYC","name":"Yuncheng Yanhu International Airport","lat":35.117823,"lon":111.034023,"elev":1242},{"icao":"ZBYN","name":"Taiyuan Wusu International Airport","lat":37.746899,"lon":112.627998,"elev":2575},{"icao":"ZBYZ","name":"Bayannur Tianjitai Airport","lat":40.926,"lon":107.7428,"elev":3400},{"icao":"ZBZJ","name":"Zhangjiakou Ningyuan Airport","lat":40.738602,"lon":114.930278,"elev":2347},{"icao":"ZBZL","name":"Zhalantun Genghis Khan Airport","lat":47.865942,"lon":122.768662,"elev":928},{"icao":"ZGBH","name":"Beihai Fucheng Airport","lat":21.5394,"lon":109.293999,"elev":75},{"icao":"ZGBS","name":"Baise (Bose) Bama Airport","lat":23.7206,"lon":106.959999,"elev":490},{"icao":"ZGCD","name":"Changde Taohuayuan Airport","lat":28.9189,"lon":111.639999,"elev":128},{"icao":"ZGCJ","name":"Huaihua Zhijiang Airport","lat":27.443087,"lon":109.704666,"elev":882},{"icao":"ZGCZ","name":"Chenzhou Beihu Airport","lat":25.753419,"lon":112.845404,"elev":1071},{"icao":"ZGDY","name":"Zhangjiajie Hehua International Airport","lat":29.1028,"lon":110.443001,"elev":8530},{"icao":"ZGFS","name":"Foshan Shadi Airport","lat":23.0825,"lon":113.070833,"elev":6},{"icao":"ZGGG","name":"Guangzhou Baiyun International Airport","lat":23.392401,"lon":113.299004,"elev":50},{"icao":"ZGHA","name":"Changsha Huanghua International Airport","lat":28.189199,"lon":113.220001,"elev":217},{"icao":"ZGHC","name":"Hechi Jinchengjiang Airport","lat":24.804344,"lon":107.710819,"elev":2221},{"icao":"ZGHY","name":"Hengyang Nanyue Airport","lat":26.72208,"lon":112.617958,"elev":null},{"icao":"ZGHZ","name":"Huizhou Pingtan Airport","lat":23.049999,"lon":114.599998,"elev":50},{"icao":"ZGKL","name":"Guilin Liangjiang International Airport","lat":25.219828,"lon":110.039553,"elev":570},{"icao":"ZGLG","name":"Yongzhou Lingling Airport","lat":26.338661,"lon":111.610043,"elev":340},{"icao":"ZGMX","name":"Meizhou Meixian Changgangji International Airport","lat":24.263425,"lon":116.097857,"elev":312},{"icao":"ZGNN","name":"Nanning Wuxu Airport","lat":22.608544,"lon":108.175335,"elev":421},{"icao":"ZGOW","name":"Jieyang Chaoshan International Airport","lat":23.552,"lon":116.5033,"elev":null},{"icao":"ZGSD","name":"Zhuhai Jinwan Airport","lat":22.006399,"lon":113.375999,"elev":23},{"icao":"ZGSG","name":"Shaoguan Danxia Airport","lat":24.9786,"lon":113.420998,"elev":280},{"icao":"ZGSY","name":"Shaoyang Wugang Airport","lat":26.806123,"lon":110.641042,"elev":1444},{"icao":"ZGSZ","name":"Shenzhen Bao'an International Airport","lat":22.639299,"lon":113.810997,"elev":13},{"icao":"ZGWZ","name":"Wuzhou Xijiang Airport","lat":23.40316,"lon":111.09331,"elev":357},{"icao":"ZGXN","name":"Xingning Air Base","lat":24.1492,"lon":115.758003,"elev":null},{"icao":"ZGXX","name":"Xiangxi Biancheng Airport","lat":28.4972,"lon":109.5218,"elev":null},{"icao":"ZGYL","name":"Yulin Fumian Airport","lat":22.438056,"lon":110.120833,"elev":328},{"icao":"ZGYY","name":"Yueyang Sanhe Airport","lat":29.311699,"lon":113.281574,"elev":230},{"icao":"ZGZH","name":"Liuzhou Bailian Airport / Bailian Air Base","lat":24.2075,"lon":109.390999,"elev":295},{"icao":"ZGZJ","name":"Zhanjiang Wuchuan Airport","lat":21.481667,"lon":110.590278,"elev":null},{"icao":"ZHAY","name":"Anyang Yindu Airport","lat":36.1339,"lon":114.344002,"elev":null},{"icao":"ZHCC","name":"Zhengzhou Xinzheng International Airport","lat":34.526497,"lon":113.849165,"elev":495},{"icao":"ZHEC","name":"Ezhou Huahu Airport","lat":30.341178,"lon":115.03926,"elev":86},{"icao":"ZHES","name":"Enshi Xujiaping Airport","lat":30.320299,"lon":109.485001,"elev":1605},{"icao":"ZHGH","name":"Guangzhou MR Air Base / Guanghua Airport","lat":32.38866,"lon":111.69425,"elev":null},{"icao":"ZHHH","name":"Wuhan Tianhe International Airport","lat":30.774798,"lon":114.213723,"elev":113},{"icao":"ZHJZ","name":"Jingzhou Shashi Airport","lat":30.29281,"lon":112.44854,"elev":95},{"icao":"ZHLY","name":"Luoyang Beijiao Airport","lat":34.7411,"lon":112.388,"elev":840},{"icao":"ZHNY","name":"Nanyang Jiangying Airport","lat":32.982696,"lon":112.617467,"elev":840},{"icao":"ZHQQ","name":"Anyang Hongqiqu Airport","lat":35.870833,"lon":114.461944,"elev":null},{"icao":"ZHSN","name":"Shennongjia Hongping Airport","lat":31.626,"lon":110.34,"elev":8365},{"icao":"ZHSY","name":"Shiyan Wudangshan Airport","lat":32.592889,"lon":110.906296,"elev":null},{"icao":"ZHXF","name":"Xiangyang Liuji Airport","lat":32.152222,"lon":112.291666,"elev":234},{"icao":"ZHXY","name":"Xinyang Minggang Airport","lat":32.540819,"lon":114.079141,"elev":312},{"icao":"ZHYC","name":"Yichang Sanxia Airport","lat":30.554132,"lon":111.482563,"elev":673},{"icao":"ZJHK","name":"Haikou Meilan International Airport","lat":19.9349,"lon":110.459,"elev":75},{"icao":"ZJQH","name":"Qionghai Bo'ao Airport","lat":19.140951,"lon":110.452766,"elev":30},{"icao":"ZJSY","name":"Sanya Phoenix International Airport","lat":18.3029,"lon":109.412003,"elev":92},{"icao":"ZKHM","name":"Orang (Chongjin) Airport","lat":41.428538,"lon":129.647555,"elev":12},{"icao":"ZKPY","name":"Pyongyang Sunan International Airport","lat":39.224098,"lon":125.669998,"elev":117},{"icao":"ZKSD","name":"Sondok Airport","lat":39.745201,"lon":127.473999,"elev":12},{"icao":"ZKSE","name":"Samjiyŏn Airport","lat":41.907132,"lon":128.409834,"elev":4547},{"icao":"ZKUJ","name":"Uiju Airport","lat":40.150013,"lon":124.501104,"elev":32},{"icao":"ZKWS","name":"Wonsan Kalma International Airport","lat":39.166801,"lon":127.486,"elev":7},{"icao":"ZLAK","name":"Ankang Fuqiang Airport","lat":32.75696,"lon":108.87338,"elev":1209},{"icao":"ZLDH","name":"Dunhuang Mogao International Airport","lat":40.164041,"lon":94.811722,"elev":null},{"icao":"ZLDL","name":"Delingha Airport","lat":37.125286,"lon":97.268658,"elev":9843},{"icao":"ZLGL","name":"Golog Maqên Airport","lat":34.418066,"lon":100.301144,"elev":12426},{"icao":"ZLGM","name":"Golmud Airport","lat":36.4006,"lon":94.786102,"elev":9334},{"icao":"ZLGY","name":"Guyuan Liupanshan Airport","lat":36.078889,"lon":106.216944,"elev":5727},{"icao":"ZLHB","name":"Haibei Qilian Airport","lat":38.008068,"lon":100.645065,"elev":10377},{"icao":"ZLHX","name":"Huatugou Airport","lat":38.201645,"lon":90.837843,"elev":2945},{"icao":"ZLHZ","name":"Hanzhong Chenggu Airport","lat":33.133527,"lon":107.203817,"elev":null},{"icao":"ZLIC","name":"Yinchuan Hedong International Airport","lat":38.322758,"lon":106.393214,"elev":3743},{"icao":"ZLJC","name":"Jinchang Jinchuan Airport","lat":38.542222,"lon":102.348333,"elev":4740},{"icao":"ZLJQ","name":"Jiayuguan International Airport","lat":39.859052,"lon":98.339344,"elev":5112},{"icao":"ZLLL","name":"Lanzhou Zhongchuan International Airport","lat":36.515202,"lon":103.620003,"elev":6388},{"icao":"ZLLN","name":"Longnan Chengzhou Airport","lat":33.789918,"lon":105.790014,"elev":3707},{"icao":"ZLQY","name":"Qingyang Xifeng Airport","lat":35.802638,"lon":107.598896,"elev":null},{"icao":"ZLSN","name":"Xi'an Xiguan Airport","lat":34.376701,"lon":109.120003,"elev":null},{"icao":"ZLTS","name":"Tianshui Maijishan Airport","lat":34.5601,"lon":105.860343,"elev":3590},{"icao":"ZLXH","name":"Gannan Xiahe Airport","lat":34.819014,"lon":102.622261,"elev":10510},{"icao":"ZLXN","name":"Xining Caojiabao International Airport","lat":36.530093,"lon":102.040062,"elev":7119},{"icao":"ZLXY","name":"Xi'an Xianyang International Airport","lat":34.447102,"lon":108.751999,"elev":1572},{"icao":"ZLYA","name":"Yan'an Nanniwan Airport","lat":36.479413,"lon":109.464083,"elev":null},{"icao":"ZLYL","name":"Yulin Yuyang Airport","lat":38.35971,"lon":109.590927,"elev":3891},{"icao":"ZLYS","name":"Yushu Batang Airport","lat":32.836389,"lon":97.036389,"elev":12816},{"icao":"ZLZW","name":"Zhongwei Shapotou Airport","lat":37.573125,"lon":105.154454,"elev":4088},{"icao":"ZLZY","name":"Zhangye Ganzhou Airport","lat":38.801899,"lon":100.675003,"elev":5280},{"icao":"ZMAH","name":"Arvaikheer Airport","lat":46.250301361083984,"lon":102.802001953125,"elev":5932},{"icao":"ZMAT","name":"Altai Airport","lat":46.376399993896484,"lon":96.22109985351562,"elev":7260},{"icao":"ZMBH","name":"Bayankhongor Airport","lat":46.1633,"lon":100.704002,"elev":6085},{"icao":"ZMBN","name":"Bulgan Airport","lat":48.85499954223633,"lon":103.47599792480469,"elev":4311},{"icao":"ZMBR","name":"Bulagtai Resort Airport","lat":43.749304,"lon":104.114985,"elev":4659},{"icao":"ZMBS","name":"Bulgan Sum Airport","lat":46.100601,"lon":91.584198,"elev":3921},{"icao":"ZMBU","name":"Baruun Urt Airport","lat":46.660301208496094,"lon":113.28500366210938,"elev":3205},{"icao":"ZMCD","name":"Choibalsan Airport","lat":48.135381,"lon":114.647231,"elev":2457},{"icao":"ZMCK","name":"Ulaanbaatar Chinggis Khaan International Airport","lat":47.646916,"lon":106.819833,"elev":4482},{"icao":"ZMDN","name":"Donoi Airport","lat":47.7093,"lon":96.5258,"elev":5800},{"icao":"ZMDZ","name":"Dalanzadgad Airport","lat":43.608628,"lon":104.367734,"elev":4787},{"icao":"ZMHG","name":"Khatgal Airport","lat":50.435988,"lon":100.139532,"elev":5500},{"icao":"ZMHH","name":"Kharkhorin Airport","lat":47.246667,"lon":102.826111,"elev":4759},{"icao":"ZMHU","name":"Khujirt Airport","lat":46.9258003235,"lon":102.773002625,"elev":5522},{"icao":"ZMKD","name":"Khovd Airport","lat":47.954102,"lon":91.628197,"elev":4898},{"icao":"ZMMG","name":"Mandalgobi Airport","lat":45.7380981445,"lon":106.268997192,"elev":4550},{"icao":"ZMMN","name":"Mörön Airport","lat":49.663677,"lon":100.100028,"elev":4272},{"icao":"ZMTG","name":"Tsetserleg Airport","lat":47.461476,"lon":101.483804,"elev":5530},{"icao":"ZMTL","name":"Tosontsengel Airport","lat":48.73887,"lon":98.2941,"elev":5610},{"icao":"ZMUB","name":"Buyant-Ukhaa International Airport","lat":47.843102,"lon":106.766998,"elev":4364},{"icao":"ZMUG","name":"Ulaangom Airport","lat":50.066588,"lon":91.938273,"elev":null},{"icao":"ZMUH","name":"Öndörkhaan Airport","lat":47.30486,"lon":110.6092,"elev":3410},{"icao":"ZMUL","name":"Ölgii Mongolei International Airport","lat":48.993301,"lon":89.922501,"elev":5732},{"icao":"ZPBS","name":"Baoshan Yunrui Airport","lat":25.053301,"lon":99.168297,"elev":5453},{"icao":"ZPCW","name":"Cangyuan Washan Airport","lat":23.276331,"lon":99.373169,"elev":null},{"icao":"ZPDL","name":"Dali Fengyi Airport","lat":25.649401,"lon":100.319,"elev":7050},{"icao":"ZPDQ","name":"Diqing Shangri-La Airport","lat":27.7936,"lon":99.6772,"elev":10761},{"icao":"ZPJH","name":"Xishuangbanna Gasa International Airport","lat":21.974648,"lon":100.762224,"elev":1815},{"icao":"ZPJM","name":"Lancang Jingmai Airport","lat":22.417733,"lon":99.784012,"elev":null},{"icao":"ZPLC","name":"Lincang Boshang Airport","lat":23.7381,"lon":100.025002,"elev":6230},{"icao":"ZPLJ","name":"Lijiang Sanyi International Airport","lat":26.68,"lon":100.246002,"elev":7359},{"icao":"ZPMS","name":"Dehong Mangshi Airport","lat":24.4011,"lon":98.5317,"elev":2890},{"icao":"ZPNL","name":"Ninglang Luguhu Airport","lat":27.5403,"lon":100.7593,"elev":10804},{"icao":"ZPPP","name":"Kunming Changshui International Airport","lat":25.110313,"lon":102.936743,"elev":6903},{"icao":"ZPSM","name":"Pu'er Simao Airport","lat":22.793301,"lon":100.959,"elev":null},{"icao":"ZPTC","name":"Tengchong Tuofeng Airport","lat":24.938056,"lon":98.485833,"elev":6250},{"icao":"ZPWS","name":"Wenshan Puzhehei Airport","lat":23.5583,"lon":104.3255,"elev":5217},{"icao":"ZPYM","name":"Yuanmou Air Base","lat":25.737499,"lon":101.882004,"elev":3810},{"icao":"ZPZT","name":"Zhaotong Airport","lat":27.327549,"lon":103.75617,"elev":null},{"icao":"ZSAM","name":"Xiamen Gaoqi International Airport","lat":24.54400062561035,"lon":118.12799835205078,"elev":59},{"icao":"ZSAQ","name":"Anqing Tianzhushan Airport / Anqing North Air Base","lat":30.582199,"lon":117.050003,"elev":null},{"icao":"ZSBA","name":"Bengbu Tenghu Airport (U.C.)","lat":33.165808,"lon":117.057295,"elev":72},{"icao":"ZSBB","name":"Bengbu Tenghu Airport","lat":32.847733,"lon":117.320244,"elev":100},{"icao":"ZSBO","name":"Bozhou Airport (under construction)","lat":33.560777,"lon":115.911859,"elev":null},{"icao":"ZSCG","name":"Changzhou Benniu International Airport","lat":31.920485,"lon":119.77546,"elev":33},{"icao":"ZSCN","name":"Nanchang Changbei International Airport","lat":28.864815,"lon":115.90271,"elev":143},{"icao":"ZSDL","name":"Zhenjiang Dalu Airport","lat":32.23649,"lon":119.718683,"elev":16},{"icao":"ZSDY","name":"Dongying Shengli Airport","lat":37.50137,"lon":118.789863,"elev":15},{"icao":"ZSFY","name":"Fuyang Xiguan Airport","lat":32.882157,"lon":115.734364,"elev":104},{"icao":"ZSFZ","name":"Fuzhou Changle International Airport","lat":25.934669,"lon":119.66318,"elev":46},{"icao":"ZSGS","name":"Jinggangshan Airport","lat":26.856899,"lon":114.737,"elev":281},{"icao":"ZSGZ","name":"Ganzhou Huangjin Airport","lat":25.853333,"lon":114.778889,"elev":387},{"icao":"ZSHC","name":"Hangzhou Xiaoshan International Airport","lat":30.23609,"lon":120.428865,"elev":23},{"icao":"ZSHZ","name":"Heze Mudan Airport","lat":35.212972,"lon":115.736748,"elev":null},{"icao":"ZSJD","name":"Jingdezhen Luojia Airport","lat":29.3386,"lon":117.176003,"elev":112},{"icao":"ZSJG","name":"Jining Da'an Airport","lat":35.647358,"lon":116.743269,"elev":171},{"icao":"ZSJH","name":"Chizhou Jiuhuashan Airport","lat":30.7403,"lon":117.6856,"elev":60},{"icao":"ZSJJ","name":"Jiujiang Lushan Airport","lat":29.476944,"lon":115.801111,"elev":null},{"icao":"ZSJN","name":"Jinan Yaoqiang International Airport","lat":36.857201,"lon":117.216003,"elev":76},{"icao":"ZSJU","name":"Quzhou Airport","lat":28.96613,"lon":118.898793,"elev":213},{"icao":"ZSJX","name":"Jiaxing Airport / Jiaxing Air Base","lat":30.705535,"lon":120.679779,"elev":17},{"icao":"ZSLG","name":"Lianyungang Huaguoshan International Airport","lat":34.41406,"lon":119.17899,"elev":null},{"icao":"ZSLI","name":"Lishui Airport","lat":28.3727,"lon":119.839,"elev":null},{"icao":"ZSLO","name":"Liancheng Guanzhishan Airport","lat":25.67592,"lon":116.745907,"elev":1225},{"icao":"ZSLQ","name":"Taizhou Luqiao Airport","lat":28.562201,"lon":121.429001,"elev":null},{"icao":"ZSLY","name":"Linyi Qiyang Airport","lat":35.052918,"lon":118.411828,"elev":177},{"icao":"ZSNB","name":"Ningbo Lishe International Airport","lat":29.82670021057129,"lon":121.46199798583984,"elev":13},{"icao":"ZSNJ","name":"Nanjing Lukou International Airport","lat":31.735032,"lon":118.865949,"elev":49},{"icao":"ZSNT","name":"Nantong Xingdong International Airport","lat":32.073566,"lon":120.980076,"elev":16},{"icao":"ZSOF","name":"Hefei Xinqiao International Airport","lat":31.98779,"lon":116.9769,"elev":207},{"icao":"ZSPD","name":"Shanghai Pudong International Airport","lat":31.1434,"lon":121.805,"elev":13},{"icao":"ZSQD","name":"Qingdao Jiaodong International Airport","lat":36.361953,"lon":120.088171,"elev":30},{"icao":"ZSQZ","name":"Quanzhou Jinjiang International Airport","lat":24.796587,"lon":118.588883,"elev":39},{"icao":"ZSRG","name":"Rugao Air Base","lat":32.258341,"lon":120.501131,"elev":null},{"icao":"ZSRJ","name":"Ganzhou Ruijin Airport","lat":25.960236,"lon":116.077016,"elev":750},{"icao":"ZSRZ","name":"Rizhao Shanzihe Airport","lat":35.405033,"lon":119.324403,"elev":121},{"icao":"ZSSH","name":"Huai'an Lianshui International Airport","lat":33.790833,"lon":119.125,"elev":28},{"icao":"ZSSM","name":"Sanming Shaxian Airport","lat":26.4263,"lon":117.8336,"elev":830},{"icao":"ZSSR","name":"Shangrao Sanqingshan Airport","lat":28.3797,"lon":117.9643,"elev":340},{"icao":"ZSSS","name":"Shanghai Hongqiao International Airport","lat":31.198104,"lon":121.33426,"elev":10},{"icao":"ZSSZ","name":"Suzhou Guangfu Airport","lat":31.2631,"lon":120.401001,"elev":null},{"icao":"ZSTX","name":"Tunxi International Airport","lat":29.733299255371094,"lon":118.25599670410156,"elev":null},{"icao":"ZSWA","name":"Wuhu Xuanzhou Airport","lat":31.1045,"lon":118.66687,"elev":80},{"icao":"ZSWF","name":"Weifang Nanyuan Airport","lat":36.646702,"lon":119.119003,"elev":null},{"icao":"ZSWH","name":"Weihai Dashuibo Airport","lat":37.187099,"lon":122.228996,"elev":145},{"icao":"ZSWX","name":"Sunan Shuofang International Airport","lat":31.494400024399997,"lon":120.429000854,"elev":24},{"icao":"ZSWY","name":"Nanping Wuyishan Airport","lat":27.7019,"lon":118.000999,"elev":614},{"icao":"ZSWZ","name":"Wenzhou Longwan International Airport","lat":27.910572,"lon":120.853465,"elev":13},{"icao":"ZSXZ","name":"Xuzhou Guanyin International Airport","lat":34.059056,"lon":117.555278,"elev":108},{"icao":"ZSYA","name":"Yangzhou Taizhou Airport","lat":32.5634,"lon":119.7198,"elev":7},{"icao":"ZSYC","name":"Yichun Mingyueshan Airport","lat":27.8025,"lon":114.3062,"elev":430},{"icao":"ZSYN","name":"Yancheng Nanyang International Airport","lat":33.425833,"lon":120.203056,"elev":10},{"icao":"ZSYT","name":"Yantai Penglai International Airport","lat":37.659724,"lon":120.978124,"elev":154},{"icao":"ZSYW","name":"Yiwu Airport","lat":29.342095,"lon":120.03116,"elev":262},{"icao":"ZSZS","name":"Zhoushan Putuoshan Airport","lat":29.9342,"lon":122.362,"elev":3},{"icao":"ZUAL","name":"Ngari Gunsa Airport","lat":32.09794,"lon":80.053971,"elev":14022},{"icao":"ZUAS","name":"Anshun Huangguoshu Airport","lat":26.260556,"lon":105.873333,"elev":4812},{"icao":"ZUBD","name":"Qamdo Bangda Airport","lat":30.553600311279297,"lon":97.1082992553711,"elev":14219},{"icao":"ZUBJ","name":"Bijie Feixiong Airport","lat":27.267066,"lon":105.472097,"elev":4751},{"icao":"ZUBZ","name":"Bazhong Enyang Airport","lat":31.73842,"lon":106.644872,"elev":1804},{"icao":"ZUCK","name":"Chongqing Jiangbei International Airport","lat":29.712254,"lon":106.651895,"elev":1365},{"icao":"ZUDA","name":"Dazhou Jinya Airport","lat":31.048815,"lon":107.435646,"elev":1342},{"icao":"ZUDC","name":"Daocheng Yading Airport","lat":29.31632,"lon":100.060317,"elev":14472},{"icao":"ZUDJ","name":"Tongren Dejiang Airport (Under Construction)","lat":28.121,"lon":108.1631,"elev":3542},{"icao":"ZUDR","name":"Rikaze Dingri Airport","lat":28.604567,"lon":86.798,"elev":14108},{"icao":"ZUDX","name":"Dachuan Airport","lat":31.1302,"lon":107.4295,"elev":null},{"icao":"ZUDZ","name":"Dazu Air Base","lat":29.636227,"lon":105.773621,"elev":1220},{"icao":"ZUGH","name":"Guanghan Airport","lat":30.9485,"lon":104.3296,"elev":1531},{"icao":"ZUGU","name":"Guangyuan Panlong Airport","lat":32.390254,"lon":105.694571,"elev":null},{"icao":"ZUGY","name":"Guiyang Longdongbao International Airport","lat":26.541466,"lon":106.803331,"elev":3736},{"icao":"ZUGZ","name":"Garze Gesar Airport","lat":31.7575,"lon":99.554167,"elev":13346},{"icao":"ZUHY","name":"Hongyuan Airport","lat":32.53154,"lon":102.35224,"elev":11600},{"icao":"ZUJZ","name":"Jiuzhai Huanglong Airport","lat":32.853333,"lon":103.682222,"elev":11327},{"icao":"ZUKD","name":"Kangding Airport","lat":30.142464,"lon":101.73872,"elev":14042},{"icao":"ZUKJ","name":"Kaili Huangping Airport","lat":26.972,"lon":107.988,"elev":3115},{"icao":"ZULA","name":"Langzhong Gucheng Airport","lat":31.50191,"lon":106.034417,"elev":1444},{"icao":"ZULB","name":"Libo Airport","lat":25.4525,"lon":107.961667,"elev":null},{"icao":"ZULP","name":"Liangping Airport","lat":30.679399,"lon":107.786003,"elev":null},{"icao":"ZULS","name":"Lhasa Gonggar International Airport","lat":29.298001,"lon":90.911951,"elev":11713},{"icao":"ZULZ","name":"Luzhou Yunlong Airport","lat":29.030357,"lon":105.468407,"elev":null},{"icao":"ZUMT","name":"Zunyi Maotai Airport","lat":27.961837,"lon":106.435416,"elev":4068},{"icao":"ZUMY","name":"Mianyang Nanjiao Airport","lat":31.428101,"lon":104.740997,"elev":7874},{"icao":"ZUNC","name":"Nanchong Gaoping Airport","lat":30.798104,"lon":106.16415,"elev":1145},{"icao":"ZUNP","name":"Liping Airport","lat":26.32217,"lon":109.1499,"elev":1620},{"icao":"ZUNZ","name":"Nyingchi Mainling Airport","lat":29.303301,"lon":94.335297,"elev":9675},{"icao":"ZUPL","name":"Ali Pulan Airport","lat":30.397898,"lon":81.13317,"elev":13943},{"icao":"ZUPS","name":"Liupanshui Yuezhao Airport","lat":26.609417,"lon":104.979,"elev":null},{"icao":"ZUQJ","name":"Qianjiang Wulingshan Airport","lat":29.5133333333,"lon":108.831111111,"elev":2075},{"icao":"ZURK","name":"Xigaze Peace Airport / Shigatse Air Base","lat":29.350876,"lon":89.299157,"elev":3782},{"icao":"ZUSH","name":"Shannan Longzi Airport","lat":28.422422,"lon":92.348082,"elev":12959},{"icao":"ZUTF","name":"Chengdu Tianfu International Airport","lat":30.31252,"lon":104.441284,"elev":1440},{"icao":"ZUTR","name":"Tongren Fenghuang Airport","lat":27.883333,"lon":109.308889,"elev":null},{"icao":"ZUUU","name":"Chengdu Shuangliu International Airport","lat":30.558257,"lon":103.945966,"elev":1625},{"icao":"ZUWL","name":"Chongqing Xiannüshan Airport","lat":29.465658,"lon":107.693664,"elev":1747},{"icao":"ZUWS","name":"Chongqing Wushan Airport","lat":31.06896,"lon":109.708958,"elev":null},{"icao":"ZUWX","name":"Wanzhou Wuqiao Airport","lat":30.8017,"lon":108.433,"elev":null},{"icao":"ZUXC","name":"Xichang Qingshan Airport","lat":27.9891,"lon":102.183998,"elev":5112},{"icao":"ZUYB","name":"Yibin Wuliangye Airport","lat":28.858431,"lon":104.526157,"elev":1378},{"icao":"ZUYI","name":"Xingyi Wanfenglin Airport","lat":25.083423,"lon":104.960804,"elev":4150},{"icao":"ZUZH","name":"Panzhihua Bao'anying Airport","lat":26.54,"lon":101.79852,"elev":1620},{"icao":"ZUZY","name":"Zunyi Xinzhou Airport","lat":27.810723,"lon":107.247189,"elev":2723},{"icao":"ZWAK","name":"Aksu Hongqipo Airport","lat":41.262501,"lon":80.291702,"elev":3816},{"icao":"ZWAL","name":"Aral Tarim Airport","lat":40.434748,"lon":81.26206,"elev":null},{"icao":"ZWAT","name":"Altay Xuedu Airport","lat":47.749886,"lon":88.085808,"elev":2460},{"icao":"ZWBL","name":"Bole Alashankou Airport","lat":44.895461,"lon":82.30007,"elev":1253},{"icao":"ZWCM","name":"Qiemo Yudu Airport","lat":38.234516,"lon":85.465462,"elev":null},{"icao":"ZWFY","name":"Fuyun Koktokay Airport","lat":46.804169,"lon":89.512006,"elev":3081},{"icao":"ZWHJ","name":"Hejing Bayinbuluke Airport","lat":42.976395,"lon":83.995543,"elev":8219},{"icao":"ZWHM","name":"Hami Airport","lat":42.8414,"lon":93.669197,"elev":2703},{"icao":"ZWHZ","name":"Shihezi Huayuan Airport","lat":44.2421,"lon":85.8905,"elev":1700},{"icao":"ZWKC","name":"Kuqa Qiuci Airport","lat":41.677856,"lon":82.872917,"elev":3524},{"icao":"ZWKL","name":"Korla Licheng Airport","lat":41.614979,"lon":86.140817,"elev":3041},{"icao":"ZWKM","name":"Karamay Airport","lat":45.46655,"lon":84.9527,"elev":null},{"icao":"ZWKN","name":"Burqin Kanas Airport","lat":48.2223,"lon":86.9959,"elev":3921},{"icao":"ZWNL","name":"Xinyuan Nalati Airport","lat":43.4318,"lon":83.3786,"elev":3050},{"icao":"ZWQT","name":"Qitai Jiangbulake Airport","lat":44.166086,"lon":89.55014,"elev":null},{"icao":"ZWRQ","name":"Ruoqiang Loulan Airport","lat":38.974722,"lon":88.008333,"elev":2916},{"icao":"ZWSC","name":"Shache Airport","lat":38.24542,"lon":77.056149,"elev":4232},{"icao":"ZWSH","name":"Kashgar Laining International Airport","lat":39.5429,"lon":76.019997,"elev":4529},{"icao":"ZWSS","name":"Shanshan Airport","lat":42.911701,"lon":90.247498,"elev":null},{"icao":"ZWTC","name":"Tacheng Qianquan Airport","lat":46.672501,"lon":83.340797,"elev":null},{"icao":"ZWTK","name":"Tashikuergan Hongqilafu Airport","lat":37.661333,"lon":75.288877,"elev":10499},{"icao":"ZWTL","name":"Turpan Jiaohe Airport","lat":43.0308,"lon":89.0987,"elev":934},{"icao":"ZWTN","name":"Hotan Airport","lat":37.03850173950195,"lon":79.86489868164062,"elev":4672},{"icao":"ZWTS","name":"Tumxuk Tangwangcheng Airport","lat":39.886663,"lon":79.233408,"elev":3566},{"icao":"ZWWW","name":"Ürümqi Tianshan International Airport","lat":43.907101,"lon":87.474197,"elev":2125},{"icao":"ZWYN","name":"Yining Airport","lat":43.955799,"lon":81.330299,"elev":null},{"icao":"ZWYT","name":"Yutian Wanfang Airport","lat":36.8085,"lon":81.7827,"elev":4731},{"icao":"ZWZS","name":"Zhaosu Tianma Airport","lat":43.088477,"lon":81.223013,"elev":null},{"icao":"ZYAS","name":"Anshan Teng'ao Airport / Anshan Air Base","lat":41.105301,"lon":122.853996,"elev":null},{"icao":"ZYBA","name":"Baicheng Chang'an Airport","lat":45.505278,"lon":123.019722,"elev":480},{"icao":"ZYBS","name":"Changbaishan Airport","lat":42.066944,"lon":127.602222,"elev":2874},{"icao":"ZYCC","name":"Changchun Longjia International Airport","lat":43.996201,"lon":125.684998,"elev":706},{"icao":"ZYCH","name":"Changhai Airport","lat":39.266441,"lon":122.66696,"elev":80},{"icao":"ZYCY","name":"Chaoyang Airport","lat":41.538101,"lon":120.434998,"elev":568},{"icao":"ZYDD","name":"Dandong Langtou International Airport","lat":40.025453,"lon":124.28669,"elev":30},{"icao":"ZYDQ","name":"Daqing Sartu Airport","lat":46.750883,"lon":125.138642,"elev":496},{"icao":"ZYDU","name":"Wudalianchi Dedu Airport","lat":48.441037,"lon":126.128374,"elev":984},{"icao":"ZYFY","name":"Fuyuan Dongji Airport","lat":48.197219,"lon":134.36298,"elev":null},{"icao":"ZYHB","name":"Harbin Taiping International Airport","lat":45.623402,"lon":126.25,"elev":457},{"icao":"ZYHE","name":"Heihe Aihui Airport","lat":50.171621,"lon":127.308884,"elev":1047},{"icao":"ZYJD","name":"Daxing'anling Elunchun Airport","lat":50.371389,"lon":124.1175,"elev":1205},{"icao":"ZYJL","name":"Jilin Ertaizi Airport","lat":44.002652,"lon":126.395244,"elev":null},{"icao":"ZYJM","name":"Jiamusi Dongjiao Airport","lat":46.843399,"lon":130.464996,"elev":262},{"icao":"ZYJS","name":"Jiansanjiang Shidi Airport","lat":47.108248,"lon":132.65792,"elev":null},{"icao":"ZYJX","name":"Jixi Xingkaihu Airport","lat":45.293,"lon":131.193,"elev":760},{"icao":"ZYJZ","name":"Jinzhou Bay Airport","lat":40.936032,"lon":121.277114,"elev":null},{"icao":"ZYLD","name":"Yichun Lindu Airport","lat":47.752056,"lon":129.019125,"elev":791},{"icao":"ZYMD","name":"Mudanjiang Hailang International Airport","lat":44.525172,"lon":129.568634,"elev":883},{"icao":"ZYMH","name":"Mohe Gulian Airport","lat":52.916871,"lon":122.422759,"elev":1836},{"icao":"ZYQQ","name":"Qiqihar Sanjiazi Airport","lat":47.239601135253906,"lon":123.91799926757812,"elev":477},{"icao":"ZYSD","name":"Suifenhe Dongning Airport","lat":44.453889,"lon":130.843889,"elev":1407},{"icao":"ZYSQ","name":"Songyuan Chaganhu Airport","lat":44.931143,"lon":124.552121,"elev":459},{"icao":"ZYTL","name":"Dalian Zhoushuizi International Airport","lat":38.965719,"lon":121.538477,"elev":107},{"icao":"ZYTN","name":"Tonghua Sanyuanpu Airport","lat":42.048435,"lon":125.733963,"elev":1347},{"icao":"ZYTX","name":"Shenyang Taoxian International Airport","lat":41.639801,"lon":123.483002,"elev":198},{"icao":"ZYXC","name":"Xingcheng Air Base","lat":40.580328,"lon":120.700374,"elev":30},{"icao":"ZYYC","name":"Yichun Airport","lat":47.717936,"lon":128.830519,"elev":798},{"icao":"ZYYJ","name":"Yanji Chaoyangchuan Airport","lat":42.8828010559,"lon":129.451004028,"elev":624},{"icao":"ZYYK","name":"Yingkou Lanqi Airport","lat":40.542524,"lon":122.3586,"elev":null},{"icao":"ZYYY","name":"Shenyang Dongta Airport","lat":41.784354,"lon":123.496308,"elev":157}]